gps_sow, time,system_timestamp,angle_pitch,angle_roll,angle_yaw,pitch_reference,roll_reference,yaw_reference,ang_vel__pitch,ang_vel__roll,ang_vel__yaw,total_acc__x,total_acc__y,total_acc__z,trans__acc__x,trans__acc__y,trans__acc__z,total_acc_,barometer_height,dheight,height_reference,dheight_reference,latitude,longitude,height,speed_x,speed_y,horizontal_accuracy,gps_status,battery_1,battery_2,status,flightmode,pressure,temp__gyro,temp__adc,pitch,roll,yaw,thrust,debug1,debug2,debug3,debug4,
385140.82, 11:58:44.82,0,0.000,0.000,0.000,0.000,0.000,0.000,0,0,0,0.000,0.000,0.000,0.000,0.000,0.000,0.000,0.000,0.000,0.000,0.000,0.0000000,0.0000000,0.000,0.000,0.000,0.00,00,12.431,0.000,0,129,0,0,0,0,0,0,0,0,0,0,0
385140.83, 11:58:44.83,0,0.000,0.000,0.000,0.000,0.000,0.000,0,0,0,0.000,0.000,0.000,0.000,0.000,0.000,0.000,0.000,0.000,0.000,0.000,0.0000000,0.0000000,0.000,0.000,0.000,0.00,00,12.431,0.000,0,129,0,0,0,0,0,0,0,0,0,0,0
385141.06, 11:58:45.06,0,90.000,0.000,245.948,90.000,0.000,251.278,45,1,26,1.204,-1.263,-1.572,-1.568,-1.262,-0.202,2.345,-0.046,0.036,0.048,0.488,0.0000000,0.0000000,0.000,0.000,0.000,0.00,00,12.433,0.000,0,131,0,0,0,0,0,0,0,0,0,0,0
385141.26, 11:58:45.26,0,-0.039,-1.395,225.716,0.000,-1.375,223.078,43,37,0,0.000,0.024,-1.005,-0.000,0.001,-0.004,1.003,0.078,0.128,0.522,0.726,0.0000000,0.0000000,0.000,0.000,0.000,0.00,00,12.432,0.000,0,131,0,0,0,0,0,0,0,0,0,0,0
385141.47, 11:58:45.47,0,0.049,-1.309,227.625,0.172,-1.301,222.638,32,-37,-9,0.003,0.023,-1.001,0.001,0.000,0.000,1.000,0.251,0.207,0.599,0.640,0.0000000,0.0000000,0.000,0.000,0.000,0.00,00,12.430,0.000,0,131,0,0,0,0,0,0,0,0,0,0,0
385141.67, 11:58:45.67,0,0.063,-1.287,229.745,-0.086,-1.289,220.908,-79,-6,-10,-0.002,0.022,-1.000,-0.003,0.001,0.001,1.000,0.410,0.270,0.623,0.130,0.0000000,0.0000000,0.000,0.000,0.000,0.00,00,12.430,0.000,0,131,0,0,0,0,0,0,0,0,0,0,0
385141.87, 11:58:45.87,0,-0.046,-1.346,231.616,-0.430,-1.192,222.058,-59,-2,1,-0.007,0.021,-1.001,-0.007,-0.004,-0.001,1.000,0.552,0.320,0.724,0.028,0.0000000,0.0000000,0.000,0.000,0.000,0.00,00,12.432,0.000,0,131,0,0,0,0,0,0,0,0,0,0,0
385142.06, 11:58:46.06,0,-0.180,-1.291,233.036,-0.137,-1.192,222.968,-4,8,19,-0.002,0.021,-1.002,0.001,-0.001,-0.002,1.002,0.655,0.347,0.726,0.672,0.0000000,0.0000000,0.000,0.000,0.000,0.00,00,12.427,0.000,0,131,0,0,0,0,0,0,0,0,0,0,0
385142.27, 11:58:46.27,0,-0.176,-1.233,234.090,-0.172,-1.192,222.428,-26,-32,6,-0.003,0.021,-1.003,-0.000,0.000,-0.001,1.002,0.741,0.364,0.764,0.202,0.0000000,0.0000000,0.000,0.000,0.000,0.00,00,12.430,0.000,0,131,0,0,0,0,0,0,0,0,0,0,0
385142.49, 11:58:46.49,0,-0.096,-1.198,234.825,0.080,-1.181,222.368,-12,-36,56,0.001,0.021,-1.000,0.003,0.002,0.001,1.000,0.815,0.370,0.805,0.369,0.0000000,0.0000000,0.000,0.000,0.000,0.00,00,12.431,0.000,0,131,0,0,0,0,0,0,0,0,0,0,0
385142.68, 11:58:46.68,0,-0.133,-1.179,235.328,-0.172,-1.175,222.258,-87,-20,-17,-0.003,0.021,-1.003,0.000,0.000,-0.001,1.002,0.883,0.374,0.856,0.256,0.0000000,0.0000000,0.000,0.000,0.000,0.00,00,12.433,0.000,0,131,0,0,0,0,0,0,0,0,0,0,0
385142.88, 11:58:46.88,0,-0.251,-1.207,235.605,-0.430,-1.289,222.798,-69,41,-18,-0.007,0.022,-1.004,-0.000,-0.000,-0.003,1.003,0.938,0.370,0.879,0.319,0.0000000,0.0000000,0.000,0.000,0.000,0.00,00,12.431,0.000,0,131,0,0,0,0,0,0,0,0,0,0,0
385143.09, 11:58:47.09,0,-0.291,-1.225,235.800,-0.642,-0.906,222.298,-11,7,-59,-0.011,0.016,-1.004,-0.004,-0.006,-0.001,1.002,1.010,0.377,1.039,0.764,0.0000000,0.0000000,0.000,0.000,0.000,0.00,00,12.430,0.000,0,131,0,0,0,0,0,0,0,0,0,0,0
385143.28, 11:58:47.28,0,-0.273,-1.241,236.012,-0.269,-1.284,222.198,-34,-6,17,-0.005,0.022,-1.003,0.001,-0.000,0.001,1.002,1.068,0.374,1.010,0.470,0.0000000,0.0000000,0.000,0.000,0.000,0.00,00,12.432,0.000,0,131,0,0,0,0,0,0,0,0,0,0,0
385143.49, 11:58:47.49,0,-0.150,-1.203,235.975,-0.017,-1.192,222.468,82,-13,53,-0.000,0.021,-1.004,0.001,-0.001,-0.002,1.003,1.111,0.363,0.983,-0.403,0.0000000,0.0000000,0.000,0.000,0.000,65.53,00,12.430,0.000,0,131,0,0,0,0,0,0,0,0,0,0,0
385143.7, 11:58:47.70,0,-0.040,-1.118,235.778,0.092,-1.100,223.308,-87,23,28,0.002,0.019,-1.001,0.002,0.002,0.000,1.001,1.148,0.350,1.078,0.396,0.0000000,0.0000000,0.000,0.000,0.000,65.53,00,12.432,0.000,0,131,0,0,0,0,0,0,0,0,0,0,0
385143.9, 11:58:47.90,0,-0.116,-1.139,235.562,0.012,-1.043,222.258,-69,-67,-2,0.000,0.018,-1.001,0.001,0.000,0.000,1.001,1.198,0.343,1.114,-0.418,0.0000000,0.0000000,0.000,0.000,0.000,65.53,00,12.431,0.000,0,131,0,0,0,0,0,0,0,0,0,0,0
385144.11, 11:58:48.11,0,-0.070,-1.153,235.367,-0.183,-1.192,222.768,5,37,3,-0.003,0.021,-1.002,-0.002,0.001,0.001,1.001,1.232,0.331,1.202,0.974,0.0000000,0.0000000,0.000,0.000,0.000,65.53,00,12.434,0.000,0,131,0,0,0,0,0,0,0,0,0,0,0
385144.31, 11:58:48.31,0,-0.052,-1.142,235.153,0.092,-0.854,221.758,-13,1,39,0.002,0.015,-1.002,0.002,-0.004,0.002,1.001,1.268,0.318,1.139,-0.090,0.0000000,0.0000000,0.000,0.000,0.000,65.53,00,12.431,0.000,0,131,0,0,0,0,0,0,0,0,0,0,0
385144.51, 11:58:48.51,0,-0.090,-1.124,234.955,-0.017,-1.301,221.378,36,0,-10,-0.000,0.023,-1.000,0.002,0.003,0.002,1.000,1.297,0.302,1.212,-0.027,0.0000000,0.0000000,0.000,0.000,0.000,65.53,00,12.429,0.000,0,131,0,0,0,0,0,0,0,0,0,0,0
385144.71, 11:58:48.71,0,-0.049,-1.149,234.748,0.029,-1.066,222.798,-151,-86,-8,0.001,0.019,-1.002,0.002,-0.001,0.001,1.001,1.319,0.286,1.196,-0.198,0.0000000,0.0000000,0.000,0.000,0.000,65.53,00,12.430,0.000,0,131,0,0,0,0,0,0,0,0,0,0,0
385144.91, 11:58:48.91,0,-0.039,-1.088,234.550,-0.155,-0.917,221.988,-8,9,16,-0.003,0.016,-1.000,-0.001,-0.001,0.002,1.000,1.337,0.267,1.217,-0.178,0.0000000,0.0000000,0.000,0.000,0.000,65.53,00,12.430,0.000,0,131,0,0,0,0,0,0,0,0,0,0,0
385145.12, 11:58:49.12,0,-0.001,-1.094,234.352,0.195,-1.152,223.108,-37,-6,69,0.003,0.020,-1.003,0.003,0.002,-0.001,1.002,1.346,0.245,1.260,0.257,0.0000000,0.0000000,0.000,0.000,0.000,65.53,00,12.432,0.000,0,131,0,0,0,0,0,0,0,0,0,0,0
385145.32, 11:58:49.32,0,-0.021,-1.195,234.159,-0.091,-1.118,224.278,-24,34,6,-0.002,0.019,-1.003,-0.002,-0.002,-0.001,1.002,1.368,0.233,1.330,0.404,0.0000000,0.0000000,0.000,0.000,0.000,65.53,00,12.428,0.000,0,131,0,0,0,0,0,0,0,0,0,0,0
385145.52, 11:58:49.52,0,-0.054,-1.119,233.956,-0.057,-1.037,222.328,40,24,2,-0.001,0.018,-1.005,-0.000,-0.001,-0.000,1.004,1.394,0.224,1.302,-0.080,0.0000000,0.0000000,0.000,0.000,0.000,65.53,00,12.431,0.000,0,131,0,0,0,0,0,0,0,0,0,0,0
385145.73, 11:58:49.73,0,-0.181,-1.073,233.752,-0.269,-0.751,222.498,-76,-82,-45,-0.005,0.013,-1.006,-0.001,-0.004,-0.001,1.004,1.421,0.215,1.440,1.102,0.0000000,0.0000000,0.000,0.000,0.000,65.53,00,12.432,0.000,0,131,0,0,0,0,0,0,0,0,0,0,0
385145.93, 11:58:49.93,0,-0.322,-1.066,233.553,-0.350,-1.175,221.718,98,-26,-1,-0.006,0.021,-1.003,0.001,0.002,0.001,1.002,1.455,0.209,1.410,-0.054,0.0000000,0.0000000,0.000,0.000,0.000,65.53,00,12.432,0.000,0,131,0,0,0,0,0,0,0,0,0,0,0
385146.13, 11:58:50.13,0,-0.260,-1.074,233.354,-0.235,-1.209,220.708,-51,-41,-22,-0.004,0.021,-1.004,0.001,0.003,0.000,1.003,1.317,0.115,-0.031,-13.107,0.0000000,0.0000000,0.000,0.000,0.000,65.53,00,12.428,0.000,0,131,0,0,0,0,0,0,0,0,0,0,0
385146.34, 11:58:50.34,0,-0.393,-1.079,233.147,-0.539,-1.100,222.698,-28,30,-22,-0.009,0.019,-0.999,-0.001,0.001,0.004,0.999,0.890,-0.124,0.024,0.596,0.0000000,0.0000000,0.000,0.000,0.000,65.53,00,12.431,0.000,0,131,0,0,0,0,0,0,0,0,0,0,0
385146.54, 11:58:50.54,0,-0.332,-1.034,232.935,-0.269,-0.997,222.698,63,-3,-6,-0.005,0.017,-1.001,0.001,0.001,0.001,1.000,0.570,-0.287,0.080,0.283,0.0000000,0.0000000,0.000,0.000,0.000,65.53,00,12.429,0.000,0,131,0,0,0,0,0,0,0,0,0,0,0
385146.76, 11:58:50.76,0,-0.258,-1.063,232.740,-0.155,-1.100,221.928,-36,-48,1,-0.003,0.019,-1.001,-0.001,0.001,-0.000,1.000,0.368,-0.380,0.030,-1.111,0.0000000,0.0000000,0.000,0.000,0.000,65.53,00,12.429,0.000,0,131,0,0,0,0,0,0,0,0,0,0,0
385146.94, 11:58:50.94,0,-0.127,-1.051,232.534,-0.057,-1.043,222.598,98,47,74,-0.001,0.018,-1.004,-0.001,0.000,-0.002,1.003,0.203,-0.437,0.069,-0.618,0.0000000,0.0000000,0.000,0.000,0.000,65.53,00,12.428,0.000,0,131,0,0,0,0,0,0,0,0,0,0,0
385147.15, 11:58:51.15,0,-0.121,-1.055,232.344,-0.051,-1.089,221.518,-39,-25,-26,-0.001,0.019,-1.001,0.000,0.000,-0.001,1.000,0.099,-0.467,0.072,-0.510,0.0000000,0.0000000,0.000,0.000,0.000,65.53,00,12.429,0.000,0,131,0,0,0,0,0,0,0,0,0,0,0
385147.35, 11:58:51.35,0,-0.125,-1.023,232.146,-0.132,-1.020,222.498,99,8,28,-0.002,0.018,-1.002,0.000,0.000,-0.001,1.001,0.044,-0.464,0.188,-0.332,0.0000000,0.0000000,0.000,0.000,0.000,65.53,00,12.429,0.000,0,131,0,0,0,0,0,0,0,0,0,0,0
385147.55, 11:58:51.55,0,-0.105,-0.986,231.938,-0.212,-1.072,221.858,-78,19,40,-0.004,0.019,-1.005,-0.003,0.002,-0.004,1.004,0.012,-0.448,0.220,0.427,0.0000000,0.0000000,0.000,0.000,0.000,65.53,00,12.429,0.000,0,131,0,0,0,0,0,0,0,0,0,0,0
385147.76, 11:58:51.76,0,-0.056,-1.100,231.740,-0.023,-1.072,223.818,86,-52,46,-0.000,0.019,-0.999,0.001,-0.004,0.001,1.000,0.007,-0.421,0.219,-0.010,0.0000000,0.0000000,0.000,0.000,0.000,65.53,00,12.432,0.000,0,131,0,0,0,0,0,0,0,0,0,0,0
385147.96, 11:58:51.96,0,0.093,-1.113,231.538,0.321,-1.083,224.218,118,-22,5,0.006,0.019,-1.000,0.004,-0.002,0.001,1.000,0.022,-0.384,0.360,1.130,0.0000000,0.0000000,0.000,0.000,0.000,65.53,00,12.429,0.000,0,131,0,0,0,0,0,0,0,0,0,0,0
385148.16, 11:58:52.16,0,0.236,-1.154,231.333,0.160,-1.175,222.468,-79,-14,-15,0.003,0.021,-1.003,-0.002,0.000,-0.002,1.002,0.056,-0.337,0.326,0.243,0.0000000,0.0000000,0.000,0.000,0.000,65.53,00,12.432,0.000,0,131,0,0,0,0,0,0,0,0,0,0,0
385148.37, 11:58:52.37,0,0.251,-1.194,231.133,0.533,-1.055,223.008,8,-89,7,0.009,0.018,-1.002,0.004,-0.002,-0.001,1.001,0.090,-0.295,0.375,0.637,0.0000000,0.0000000,0.000,0.000,0.000,65.53,00,12.432,0.000,0,131,0,0,0,0,0,0,0,0,0,0,0
385148.57, 11:58:52.57,0,0.297,-1.177,230.939,0.498,-1.089,224.518,7,-14,0,0.009,0.019,-1.000,0.003,-0.001,0.000,1.000,0.140,-0.249,0.366,-0.236,0.0000000,0.0000000,0.000,0.000,0.000,65.53,00,12.429,0.000,0,131,0,0,0,0,0,0,0,0,0,0,0
385148.77, 11:58:52.77,0,0.461,-1.157,230.736,0.516,-1.381,222.298,-18,8,74,0.009,0.024,-1.000,0.000,0.004,-0.001,1.000,0.175,-0.213,0.410,0.566,0.0000000,0.0000000,0.000,0.000,0.000,65.53,00,12.432,0.000,0,131,0,0,0,0,0,0,0,0,0,0,0
385148.98, 11:58:52.98,0,0.385,-1.129,230.541,0.601,-0.992,223.138,87,25,23,0.011,0.017,-1.001,0.004,-0.002,-0.000,1.000,0.211,-0.178,0.370,-0.195,0.0000000,0.0000000,0.000,0.000,0.000,65.53,00,12.431,0.000,0,131,0,0,0,0,0,0,0,0,0,0,0
385149.19, 11:58:53.19,0,0.390,-1.164,230.332,0.372,-1.146,222.738,-17,-33,-44,0.006,0.020,-0.997,0.001,-0.000,0.001,0.997,0.246,-0.148,0.450,0.539,0.0000000,0.0000000,0.000,0.000,0.000,65.53,00,12.432,0.000,0,131,0,0,0,0,0,0,0,0,0,0,0
385149.38, 11:58:53.38,0,0.425,-1.241,230.124,0.527,-1.347,224.068,0,33,-4,0.009,0.024,-0.996,0.001,0.000,0.003,0.996,0.311,-0.103,0.569,0.584,0.0000000,0.0000000,0.000,0.000,0.000,65.53,00,12.431,0.000,0,131,0,0,0,0,0,0,0,0,0,0,0
385149.59, 11:58:53.59,0,0.591,-1.310,229.934,0.584,-0.997,222.698,5,-32,-25,0.010,0.017,-1.001,0.000,-0.008,-0.002,1.000,0.357,-0.071,0.509,0.200,0.0000000,0.0000000,0.000,0.000,0.000,65.53,00,12.428,0.000,0,131,0,0,0,0,0,0,0,0,0,0,0
385149.79, 11:58:53.79,0,0.522,-1.365,229.718,0.613,-1.307,223.788,-93,-29,62,0.011,0.023,-0.998,0.002,-0.001,0.000,0.998,0.412,-0.037,0.579,0.304,0.0000000,0.0000000,0.000,0.000,0.000,65.53,00,12.432,0.000,0,131,0,0,0,0,0,0,0,0,0,0,0
385149.99, 11:58:53.99,0,0.662,-1.349,229.529,0.745,-1.226,223.348,47,-3,38,0.013,0.021,-0.997,0.000,-0.002,0.002,0.997,0.470,-0.004,0.634,0.128,0.0000000,0.0000000,0.000,0.000,0.000,65.53,00,12.430,0.000,0,131,0,0,0,0,0,0,0,0,0,0,0
385150.19, 11:58:54.19,0,0.730,-1.369,229.326,0.985,-1.392,224.158,4,23,44,0.017,0.024,-0.999,0.002,0.000,-0.000,0.999,0.514,0.018,0.630,0.608,0.0000000,0.0000000,0.000,0.000,0.000,65.53,00,12.430,0.000,0,131,0,0,0,0,0,0,0,0,0,0,0
385150.4, 11:58:54.40,0,0.798,-1.395,229.126,0.813,-1.593,224.098,-3,-4,-25,0.014,0.028,-0.999,-0.002,0.003,-0.000,1.000,0.547,0.035,0.583,-0.276,0.0000000,0.0000000,0.000,0.000,0.000,65.53,00,12.430,0.000,0,131,0,0,0,0,0,0,0,0,0,0,0
385150.6, 11:58:54.60,0,0.897,-1.433,228.929,0.762,-1.593,224.368,-35,48,-25,0.013,0.028,-0.998,-0.002,0.002,0.000,0.998,0.587,0.052,0.694,0.510,0.0000000,0.0000000,0.000,0.000,0.000,65.53,00,12.428,0.000,0,131,0,0,0,0,0,0,0,0,0,0,0
385150.81, 11:58:54.81,0,0.850,-1.445,228.720,0.790,-1.347,224.338,-34,-9,-36,0.014,0.024,-1.000,-0.001,-0.002,-0.001,1.000,0.625,0.067,0.594,-1.170,0.0000000,0.0000000,0.000,0.000,0.000,65.53,00,12.430,0.000,0,131,0,0,0,0,0,0,0,0,0,0,0
385151.0, 11:58:55.00,0,0.687,-1.383,228.511,0.579,-1.381,224.428,-32,47,61,0.010,0.024,-1.000,0.000,0.002,-0.002,1.000,0.640,0.071,0.641,0.016,0.0000000,0.0000000,0.000,0.000,0.000,65.53,00,12.431,0.000,0,131,0,0,0,0,0,0,0,0,0,0,0
385151.21, 11:58:55.21,0,0.539,-1.343,228.310,0.367,-1.427,223.788,123,-16,-9,0.006,0.025,-1.002,-0.001,0.002,-0.003,1.002,0.672,0.083,0.740,0.237,0.0000000,0.0000000,0.000,0.000,0.000,65.53,00,12.432,0.000,0,131,0,0,0,0,0,0,0,0,0,0,0
385151.41, 11:58:55.41,0,0.518,-1.269,228.108,0.401,-1.209,222.128,31,21,34,0.007,0.021,-0.996,0.001,0.001,0.004,0.996,0.705,0.093,0.726,0.036,0.0000000,0.0000000,0.000,0.000,0.000,65.53,00,12.430,0.000,0,131,0,0,0,0,0,0,0,0,0,0,0
385151.61, 11:58:55.61,0,0.557,-1.323,227.907,0.269,-1.163,224.278,53,-45,39,0.005,0.020,-0.999,-0.004,-0.003,-0.001,0.999,0.737,0.101,0.734,-0.232,0.0000000,0.0000000,0.000,0.000,0.000,65.53,00,12.430,0.000,0,131,0,0,0,0,0,0,0,0,0,0,0
385151.83, 11:58:55.83,0,0.545,-1.268,227.706,0.567,-1.421,223.678,56,19,1,0.010,0.025,-0.999,0.002,0.004,-0.001,1.000,0.750,0.099,0.777,0.559,0.0000000,0.0000000,0.000,0.000,0.000,65.53,00,12.427,0.000,0,131,0,0,0,0,0,0,0,0,0,0,0
385152.03, 11:58:56.03,0,0.573,-1.322,227.492,0.206,-1.375,223.308,63,26,25,0.004,0.024,-1.000,-0.004,0.001,0.000,1.000,0.772,0.104,0.723,-0.281,0.0000000,0.0000000,0.000,0.000,0.000,65.53,00,12.431,0.000,0,131,0,0,0,0,0,0,0,0,0,0,0
385152.22, 11:58:56.22,0,0.599,-1.281,227.286,0.464,-1.198,223.108,-18,27,-18,0.008,0.021,-0.999,0.002,-0.000,0.001,0.999,0.788,0.104,0.855,1.155,0.0000000,0.0000000,0.000,0.000,0.000,65.53,00,12.429,0.000,0,131,0,0,0,0,0,0,0,0,0,0,0
385152.43, 11:58:56.43,0,0.474,-1.202,227.082,0.223,-1.100,223.518,-20,-20,-70,0.004,0.019,-0.999,-0.001,-0.000,0.000,0.999,0.804,0.103,0.774,0.218,0.0000000,0.0000000,0.000,0.000,0.000,65.53,00,12.430,0.000,0,131,0,0,0,0,0,0,0,0,0,0,0
385152.63, 11:58:56.63,0,0.528,-1.221,226.870,0.533,-0.974,224.158,79,26,21,0.009,0.017,-1.002,-0.000,-0.004,-0.001,1.001,0.809,0.098,0.796,0.289,0.0000000,0.0000000,0.000,0.000,0.000,65.53,00,12.434,0.000,0,131,0,0,0,0,0,0,0,0,0,0,0
385152.83, 11:58:56.83,0,0.646,-1.254,226.679,0.739,-1.244,224.818,-81,38,-3,0.013,0.022,-0.999,0.001,-0.001,0.000,1.000,0.815,0.092,0.762,-0.092,0.0000000,0.0000000,0.000,0.000,0.000,65.53,00,12.429,0.000,0,131,0,0,0,0,0,0,0,0,0,0,0
385153.05, 11:58:57.05,0,0.660,-1.180,226.469,0.739,-1.221,223.038,-49,38,-9,0.013,0.021,-0.999,0.001,0.002,-0.001,1.000,0.839,0.096,0.865,0.250,0.0000000,0.0000000,0.000,0.000,0.000,65.53,00,12.429,0.000,0,131,0,0,0,0,0,0,0,0,0,0,0
385153.25, 11:58:57.25,0,0.674,-1.195,226.265,0.790,-1.221,223.138,17,-50,-12,0.014,0.021,-0.996,0.001,0.001,0.001,0.996,0.861,0.098,0.839,-0.377,0.0000000,0.0000000,0.000,0.000,0.000,65.53,00,12.427,0.000,0,131,0,0,0,0,0,0,0,0,0,0,0
385153.44, 11:58:57.44,0,0.735,-1.155,226.060,0.773,-1.244,224.788,-26,16,13,0.013,0.022,-0.997,-0.001,0.002,0.000,0.998,0.883,0.103,0.941,0.852,0.0000000,0.0000000,0.000,0.000,0.000,65.53,00,12.428,0.000,0,131,0,0,0,0,0,0,0,0,0,0,0
385153.66, 11:58:57.66,0,0.743,-1.235,225.863,0.871,-1.037,222.968,-33,25,30,0.015,0.018,-0.999,0.001,-0.004,0.000,0.999,0.896,0.101,0.880,0.405,0.0000000,0.0000000,0.000,0.000,0.000,65.53,00,12.430,0.000,0,131,0,0,0,0,0,0,0,0,0,0,0
385153.85, 11:58:57.85,0,0.653,-1.215,225.648,0.630,-1.009,223.818,6,-49,-2,0.011,0.018,-0.999,0.000,-0.004,-0.001,0.999,0.908,0.098,0.887,0.214,0.0000000,0.0000000,0.000,0.000,0.000,65.53,00,12.428,0.000,0,131,0,0,0,0,0,0,0,0,0,0,0
385154.06, 11:58:58.06,0,0.617,-1.218,225.460,0.601,-1.163,223.958,36,77,36,0.011,0.020,-1.000,-0.000,-0.002,-0.001,1.000,0.924,0.099,0.929,0.463,0.0000000,0.0000000,0.000,0.000,0.000,65.53,00,12.426,0.000,0,131,0,0,0,0,0,0,0,0,0,0,0
385154.25, 11:58:58.25,0,0.610,-1.197,225.254,0.682,-1.209,223.748,65,-2,59,0.012,0.021,-1.000,0.000,0.000,-0.001,1.000,0.943,0.101,0.933,-0.113,0.0000000,0.0000000,0.000,0.000,0.000,65.53,00,12.427,0.000,0,131,0,0,0,0,0,0,0,0,0,0,0
385154.46, 11:58:58.46,0,0.741,-1.219,225.052,0.693,-1.301,223.578,38,40,22,0.012,0.023,-1.002,-0.001,0.002,-0.003,1.002,0.960,0.102,0.948,-0.101,0.0000000,0.0000000,0.000,0.000,0.000,65.53,00,12.432,0.000,0,131,0,0,0,0,0,0,0,0,0,0,0
385154.66, 11:58:58.66,0,0.752,-1.239,224.860,0.779,-1.261,225.028,-44,-22,-30,0.014,0.022,-1.000,0.001,0.000,-0.000,1.000,0.976,0.101,0.921,-0.483,0.0000000,0.0000000,0.000,0.000,0.000,65.53,00,12.427,0.000,0,131,0,0,0,0,0,0,0,0,0,0,0
385154.86, 11:58:58.86,0,0.766,-1.191,224.659,0.596,-1.421,222.668,-36,-34,-21,0.010,0.025,-0.999,-0.002,0.006,0.000,0.999,0.997,0.103,1.013,0.001,0.0000000,0.0000000,0.000,0.000,0.000,65.53,00,12.426,0.000,0,131,0,0,0,0,0,0,0,0,0,0,0
385155.07, 11:58:59.07,0,0.623,-1.164,224.455,0.481,-1.289,225.178,25,-7,-30,0.008,0.022,-1.001,-0.000,0.003,-0.001,1.000,1.017,0.105,0.978,-0.272,0.0000000,0.0000000,0.000,0.000,0.000,65.53,00,12.432,0.000,0,131,0,0,0,0,0,0,0,0,0,0,0
385155.27, 11:58:59.27,0,0.590,-1.121,224.257,0.143,-1.129,224.428,16,17,-13,0.003,0.020,-0.998,-0.004,0.000,0.003,0.998,1.020,0.098,1.023,0.625,0.0000000,0.0000000,0.000,0.000,0.000,65.53,00,12.431,0.000,0,131,0,0,0,0,0,0,0,0,0,0,0
385155.47, 11:58:59.47,0,0.537,-1.136,224.057,0.304,-1.221,222.428,78,7,-28,0.005,0.021,-1.002,-0.001,0.002,-0.001,1.001,1.035,0.097,0.980,-0.455,0.0000000,0.0000000,0.000,0.000,0.000,65.53,00,12.428,0.000,0,131,0,0,0,0,0,0,0,0,0,0,0
385155.68, 11:58:59.68,0,0.505,-1.181,223.849,0.384,-1.301,222.868,77,26,-2,0.007,0.023,-1.000,0.000,0.002,0.000,1.000,1.042,0.091,1.012,-0.185,0.0000000,0.0000000,0.000,0.000,0.000,65.53,00,12.425,0.000,0,131,0,0,0,0,0,0,0,0,0,0,0
385155.88, 11:58:59.88,0,0.369,-1.174,223.690,0.384,-1.284,223.208,26,20,25,0.007,0.022,-1.000,0.002,0.002,0.001,1.000,1.047,0.084,0.954,-0.638,0.0000000,0.0000000,0.000,0.000,0.000,65.53,00,12.432,0.000,0,131,0,0,0,0,0,0,0,0,0,0,0
385156.09, 11:59:00.09,0,0.511,-1.143,223.655,0.693,-1.072,223.518,14,26,4,0.012,0.019,-1.000,0.002,-0.001,0.000,1.000,1.046,0.076,0.998,-0.386,0.0000000,0.0000000,0.000,0.000,0.000,65.53,00,12.432,0.000,0,131,0,0,0,0,0,0,0,0,0,0,0
385156.29, 11:59:00.29,0,0.646,-1.236,223.661,0.836,-1.352,223.888,-43,-47,-16,0.015,0.024,-0.998,0.002,0.000,0.000,0.998,1.042,0.065,1.021,0.279,0.0000000,0.0000000,0.000,0.000,0.000,65.53,00,12.429,0.000,0,131,0,0,0,0,0,0,0,0,0,0,0
385156.49, 11:59:00.49,0,0.688,-1.305,223.669,1.019,-1.289,223.918,96,-15,-30,0.018,0.022,-0.999,0.004,-0.002,0.000,0.999,1.058,0.067,1.105,0.755,0.0000000,0.0000000,0.000,0.000,0.000,65.53,00,12.428,0.000,0,131,0,0,0,0,0,0,0,0,0,0,0
385156.69, 11:59:00.69,0,0.805,-1.296,223.729,0.773,-1.307,224.158,-54,-41,50,0.013,0.023,-1.003,-0.001,0.000,-0.003,1.002,1.072,0.069,1.034,-0.403,0.0000000,0.0000000,0.000,0.000,0.000,65.53,00,12.428,0.000,0,131,0,0,0,0,0,0,0,0,0,0,0
385156.9, 11:59:00.90,0,0.908,-1.290,223.837,0.710,-1.226,224.308,52,-12,32,0.012,0.021,-0.997,-0.004,-0.000,0.003,0.997,1.089,0.070,1.123,0.245,0.0000000,0.0000000,0.000,0.000,0.000,65.53,00,12.426,0.000,0,131,0,0,0,0,0,0,0,0,0,0,0
385157.11, 11:59:01.11,0,0.875,-1.271,223.901,0.939,-1.301,223.518,43,-7,-32,0.016,0.023,-1.000,0.003,0.000,-0.000,1.000,1.096,0.067,1.058,-0.067,0.0000000,0.0000000,0.000,0.000,0.000,65.53,00,12.432,0.000,0,131,0,0,0,0,0,0,0,0,0,0,0
385157.3, 11:59:01.30,0,0.874,-1.237,223.894,0.825,-1.089,224.578,-29,-10,-17,0.014,0.019,-1.000,0.000,-0.002,-0.000,1.000,1.105,0.065,1.154,0.990,0.0000000,0.0000000,0.000,0.000,0.000,65.53,00,12.432,0.000,0,131,0,0,0,0,0,0,0,0,0,0,0
385157.5, 11:59:01.50,0,0.833,-1.276,223.980,1.019,-1.347,225.658,14,4,-34,0.018,0.024,-1.000,0.004,0.001,-0.001,1.000,1.126,0.069,1.181,0.638,0.0000000,0.0000000,0.000,0.000,0.000,65.53,00,12.426,0.000,0,131,0,0,0,0,0,0,0,0,0,0,0
385157.72, 11:59:01.72,0,0.837,-1.281,224.027,0.756,-1.284,223.548,-92,-3,0,0.013,0.022,-0.999,-0.001,0.000,-0.000,1.000,1.157,0.079,1.145,-0.648,0.0000000,0.0000000,0.000,0.000,0.000,65.53,00,12.428,0.000,0,131,0,0,0,0,0,0,0,0,0,0,0
385157.91, 11:59:01.91,0,0.907,-1.331,224.028,0.853,-1.364,224.368,62,0,-30,0.015,0.024,-0.999,-0.003,-0.000,0.002,0.999,1.162,0.074,1.198,0.893,0.0000000,0.0000000,0.000,0.000,0.000,65.53,00,12.430,0.000,0,131,0,0,0,0,0,0,0,0,0,0,0
385158.12, 11:59:02.12,0,0.930,-1.294,224.031,1.134,-1.163,223.238,1,3,-57,0.020,0.020,-1.000,0.002,-0.001,-0.000,1.000,1.189,0.079,1.151,-0.872,0.0000000,0.0000000,0.000,0.000,0.000,65.53,00,12.429,0.000,0,131,0,0,0,0,0,0,0,0,0,0,0
385158.32, 11:59:02.32,0,0.993,-1.256,224.030,1.002,-1.364,225.238,-97,8,-14,0.018,0.024,-0.999,-0.000,0.003,0.000,0.999,1.184,0.068,1.057,-1.034,0.0000000,0.0000000,0.000,0.000,0.000,65.53,00,12.429,0.000,0,131,0,0,0,0,0,0,0,0,0,0,0
385158.53, 11:59:02.53,0,0.982,-1.326,224.118,1.088,-1.427,223.918,-45,-26,-11,0.019,0.025,-1.002,0.002,0.000,-0.003,1.001,1.171,0.054,1.096,-0.327,0.0000000,0.0000000,0.000,0.000,0.000,65.53,00,12.429,0.000,0,131,0,0,0,0,0,0,0,0,0,0,0
385158.72, 11:59:02.72,0,1.029,-1.287,224.171,1.048,-1.329,224.968,53,-8,-24,0.018,0.023,-0.997,-0.000,0.001,0.001,0.997,1.145,0.034,1.119,1.107,0.0000000,0.0000000,0.000,0.000,0.000,65.53,00,12.431,0.000,0,131,0,0,0,0,0,0,0,0,0,0,0
385158.93, 11:59:02.93,0,1.079,-1.360,224.220,1.065,-1.335,225.568,40,-56,1,0.019,0.023,-0.998,-0.001,-0.001,-0.001,0.999,1.143,0.030,1.107,-0.335,0.0000000,0.0000000,0.000,0.000,0.000,65.53,00,12.429,0.000,0,131,0,0,0,0,0,0,0,0,0,0,0
385159.13, 11:59:03.13,0,1.106,-1.300,224.374,1.145,-1.272,225.208,30,-44,-32,0.020,0.022,-0.995,0.000,-0.000,0.003,0.995,1.133,0.020,1.157,0.783,0.0000000,0.0000000,0.000,0.000,0.000,65.53,00,12.429,0.000,0,131,0,0,0,0,0,0,0,0,0,0,0
385159.33, 11:59:03.33,0,1.104,-1.295,224.410,1.048,-1.284,223.518,48,-32,13,0.018,0.022,-1.001,-0.002,0.000,-0.003,1.000,1.136,0.019,1.090,-0.340,0.0000000,0.0000000,0.000,0.000,0.000,65.53,00,12.430,0.000,0,131,0,0,0,0,0,0,0,0,0,0,0
385159.53, 11:59:03.53,0,1.123,-1.261,224.415,1.105,-1.100,224.698,60,4,24,0.019,0.019,-0.999,-0.001,-0.002,-0.001,1.000,1.129,0.013,1.159,0.546,0.0000000,0.0000000,0.000,0.000,0.000,65.53,00,12.427,0.000,0,131,0,0,0,0,0,0,0,0,0,0,0
385159.74, 11:59:03.74,0,1.170,-1.264,224.414,1.054,-0.997,225.118,-22,-15,-5,0.018,0.017,-1.000,-0.000,-0.004,-0.002,1.000,1.132,0.012,1.119,-0.049,0.0000000,0.0000000,0.000,0.000,0.000,65.53,00,12.424,0.000,0,131,0,0,0,0,0,0,0,0,0,0,0
385159.94, 11:59:03.94,0,1.065,-1.277,224.420,0.853,-1.181,224.488,28,-9,-8,0.015,0.021,-1.001,-0.001,-0.001,-0.002,1.000,1.125,0.009,1.153,0.872,0.0000000,0.0000000,0.000,0.000,0.000,65.53,00,12.427,0.000,0,131,0,0,0,0,0,0,0,0,0,0,0
385160.15, 11:59:04.15,0,1.040,-1.196,224.422,0.991,-1.146,222.088,-4,-34,14,0.017,0.020,-0.998,0.001,0.002,-0.001,0.998,1.122,0.003,1.136,0.618,0.0000000,0.0000000,0.000,0.000,0.000,65.53,00,12.427,0.000,0,131,0,0,0,0,0,0,0,0,0,0,0
385160.35, 11:59:04.35,0,1.095,-1.229,224.356,0.876,-1.192,224.488,49,24,-55,0.015,0.021,-1.001,-0.003,-0.001,-0.001,1.000,1.126,0.005,1.183,0.591,0.0000000,0.0000000,0.000,0.000,0.000,65.53,00,12.431,0.000,0,131,0,0,0,0,0,0,0,0,0,0,0
385160.55, 11:59:04.55,0,1.088,-1.250,224.353,1.054,-1.301,224.458,57,18,38,0.018,0.023,-0.997,0.002,0.001,0.002,0.998,1.143,0.012,1.124,-0.658,0.0000000,0.0000000,0.000,0.000,0.000,65.53,00,12.430,0.000,0,131,0,0,0,0,0,0,0,0,0,0,0
385160.76, 11:59:04.76,0,1.053,-1.205,224.351,1.019,-1.118,225.448,35,-1,-20,0.018,0.019,-0.995,0.000,-0.001,0.004,0.995,1.167,0.020,1.216,-0.112,0.0000000,0.0000000,0.000,0.000,0.000,65.53,00,12.427,0.000,0,131,0,0,0,0,0,0,0,0,0,0,0
385160.96, 11:59:04.96,0,1.090,-1.210,224.346,1.105,-1.289,224.428,12,-38,-37,0.019,0.022,-0.998,0.000,-0.000,0.001,0.998,1.181,0.025,1.189,-0.102,0.0000000,0.0000000,0.000,0.000,0.000,65.53,00,12.429,0.000,0,131,0,0,0,0,0,0,0,0,0,0,0
385161.16, 11:59:05.16,0,1.114,-1.247,224.352,1.249,-1.284,224.668,-44,46,67,0.022,0.022,-0.996,0.001,-0.001,0.001,0.996,1.197,0.029,1.250,0.306,0.0000000,0.0000000,0.000,0.000,0.000,65.53,00,12.425,0.000,0,131,0,0,0,0,0,0,0,0,0,0,0
385161.37, 11:59:05.37,0,1.126,-1.260,224.353,0.974,-1.255,224.158,-36,-44,59,0.017,0.022,-0.996,-0.002,-0.000,0.000,0.996,1.211,0.034,1.227,0.048,0.0000000,0.0000000,0.000,0.000,0.000,65.53,00,12.426,0.000,0,131,0,0,0,0,0,0,0,0,0,0,0
385161.57, 11:59:05.57,0,1.095,-1.306,224.384,1.329,-1.289,225.058,9,25,3,0.023,0.022,-0.999,0.006,-0.000,-0.000,0.999,1.222,0.037,1.222,-0.150,0.0000000,0.0000000,0.000,0.000,0.000,65.53,00,12.427,0.000,0,131,0,0,0,0,0,0,0,0,0,0,0
385161.77, 11:59:05.77,0,1.093,-1.315,224.439,1.186,-1.272,225.058,-45,-23,14,0.021,0.022,-0.999,0.003,-0.001,-0.001,0.999,1.236,0.040,1.275,0.494,0.0000000,0.0000000,0.000,0.000,0.000,65.53,00,12.429,0.000,0,131,0,0,0,0,0,0,0,0,0,0,0
385161.98, 11:59:05.98,0,1.100,-1.323,224.448,1.197,-1.238,224.038,-7,-14,28,0.021,0.022,-1.001,0.003,-0.001,-0.003,1.001,1.250,0.044,1.247,-0.044,0.0000000,0.0000000,0.000,0.000,0.000,65.53,00,12.429,0.000,0,131,0,0,0,0,0,0,0,0,0,0,0
385162.19, 11:59:06.19,0,1.086,-1.268,224.450,1.071,-1.289,224.548,-93,-2,27,0.019,0.022,-0.998,-0.001,0.002,-0.001,0.999,1.257,0.042,1.276,0.401,0.0000000,0.0000000,0.000,0.000,0.000,65.53,00,12.430,0.000,0,131,0,0,0,0,0,0,0,0,0,0,0
385162.38, 11:59:06.38,0,1.062,-1.316,224.450,1.088,-1.347,225.058,118,-18,-13,0.019,0.024,-0.997,0.001,0.000,-0.001,0.998,1.282,0.050,1.343,0.539,0.0000000,0.0000000,0.000,0.000,0.000,65.53,00,12.432,0.000,0,131,0,0,0,0,0,0,0,0,0,0,0
385162.59, 11:59:06.59,0,1.077,-1.363,224.453,1.054,-1.547,223.578,74,-29,-21,0.018,0.027,-1.002,-0.000,0.003,-0.004,1.002,1.291,0.053,1.263,-0.138,0.0000000,0.0000000,0.000,0.000,0.000,65.53,00,12.431,0.000,0,131,0,0,0,0,0,0,0,0,0,0,0
385162.78, 11:59:06.78,0,1.006,-1.297,224.377,0.693,-1.375,224.518,79,27,-9,0.012,0.024,-1.000,-0.004,0.003,-0.001,1.000,1.309,0.058,1.287,-0.791,0.0000000,0.0000000,0.000,0.000,0.000,65.53,00,12.428,0.000,0,131,0,0,0,0,0,0,0,0,0,0,0
385162.99, 11:59:06.99,0,0.989,-1.248,224.378,0.808,-1.221,225.268,20,15,24,0.014,0.021,-0.998,0.001,0.000,0.001,0.999,1.324,0.059,1.301,-0.456,0.0000000,0.0000000,0.000,0.000,0.000,65.53,00,12.429,0.000,0,131,0,0,0,0,0,0,0,0,0,0,0
385163.19, 11:59:07.19,0,0.962,-1.273,224.371,0.745,-1.318,224.248,16,27,43,0.013,0.023,-0.999,-0.000,0.001,0.000,0.999,1.330,0.055,1.316,-0.113,0.0000000,0.0000000,0.000,0.000,0.000,65.53,00,12.425,0.000,0,131,0,0,0,0,0,0,0,0,0,0,0
385163.4, 11:59:07.40,0,0.836,-1.284,224.329,0.642,-1.289,223.518,-26,-8,-18,0.011,0.022,-1.000,-0.000,0.001,-0.001,1.000,1.333,0.052,1.349,0.470,0.0000000,0.0000000,0.000,0.000,0.000,65.53,00,12.430,0.000,0,131,0,0,0,0,0,0,0,0,0,0,0
385163.6, 11:59:07.60,0,0.776,-1.242,224.263,0.487,-0.992,224.488,66,-15,-23,0.009,0.017,-1.000,0.000,-0.004,-0.000,1.000,1.343,0.052,1.311,-0.099,0.0000000,0.0000000,0.000,0.000,0.000,65.53,00,12.424,0.000,0,131,0,0,0,0,0,0,0,0,0,0,0
385163.81, 11:59:07.81,0,0.669,-1.192,224.256,0.498,-1.146,222.058,-28,-38,46,0.009,0.020,-1.000,-0.000,0.000,-0.000,1.000,1.344,0.047,1.361,0.409,0.0000000,0.0000000,0.000,0.000,0.000,65.53,00,12.429,0.000,0,131,0,0,0,0,0,0,0,0,0,0,0
385164.01, 11:59:08.01,0,0.773,-1.218,224.169,0.796,-1.410,224.068,17,11,-28,0.014,0.025,-1.002,0.000,0.001,-0.004,1.002,1.348,0.043,1.318,0.143,0.0000000,0.0000000,0.000,0.000,0.000,65.53,00,12.427,0.000,0,131,0,0,0,0,0,0,0,0,0,0,0
385164.21, 11:59:08.21,0,0.833,-1.276,224.119,0.624,-1.438,224.098,47,-55,23,0.011,0.025,-0.998,-0.003,0.002,0.001,0.998,1.335,0.032,1.268,-0.235,0.0000000,0.0000000,0.000,0.000,0.000,65.53,00,12.427,0.000,0,131,0,0,0,0,0,0,0,0,0,0,0
385164.41, 11:59:08.41,0,0.890,-1.230,224.048,0.911,-1.329,223.618,69,-52,-9,0.016,0.023,-0.999,0.002,0.002,0.000,1.000,1.328,0.025,1.342,0.579,0.0000000,0.0000000,0.000,0.000,0.000,65.53,00,12.432,0.000,0,131,0,0,0,0,0,0,0,0,0,0,0
385164.62, 11:59:08.62,0,0.860,-1.239,223.997,0.779,-1.238,223.958,-70,-59,-3,0.014,0.022,-0.998,-0.000,0.000,0.001,0.998,1.337,0.026,1.344,0.071,0.0000000,0.0000000,0.000,0.000,0.000,65.53,00,12.427,0.000,0,131,0,0,0,0,0,0,0,0,0,0,0
385164.82, 11:59:08.82,0,0.722,-1.297,224.002,0.693,-1.518,222.868,-37,48,-1,0.012,0.026,-0.999,0.000,0.003,-0.000,1.000,1.338,0.023,1.361,0.610,0.0000000,0.0000000,0.000,0.000,0.000,65.53,00,12.430,0.000,0,131,0,0,0,0,0,0,0,0,0,0,0
385165.02, 11:59:09.02,0,0.720,-1.338,224.002,0.808,-1.427,223.548,53,31,17,0.014,0.025,-0.999,-0.000,0.000,-0.001,1.000,1.340,0.021,1.376,0.617,0.0000000,0.0000000,0.000,0.000,0.000,65.53,00,12.427,0.000,0,131,0,0,0,0,0,0,0,0,0,0,0
385165.23, 11:59:09.23,0,0.830,-1.328,223.998,0.939,-1.318,224.698,21,-58,-3,0.016,0.023,-0.996,0.001,-0.000,0.002,0.997,1.335,0.015,1.254,-0.530,0.0000000,0.0000000,0.000,0.000,0.000,65.53,00,12.424,0.000,0,131,0,0,0,0,0,0,0,0,0,0,0
385165.43, 11:59:09.43,0,0.871,-1.307,224.100,0.859,-1.307,225.178,-42,-42,-9,0.015,0.023,-0.997,0.000,0.000,0.000,0.997,1.331,0.009,1.309,-0.363,0.0000000,0.0000000,0.000,0.000,0.000,65.53,00,12.428,0.000,0,131,0,0,0,0,0,0,0,0,0,0,0
385165.64, 11:59:09.64,0,0.777,-1.341,224.188,0.871,-1.381,225.028,-32,-30,38,0.015,0.024,-0.997,0.002,0.001,0.001,0.997,1.320,0.001,1.290,-0.292,0.0000000,0.0000000,0.000,0.000,0.000,65.53,00,12.426,0.000,0,131,0,0,0,0,0,0,0,0,0,0,0
385165.83, 11:59:09.83,0,0.812,-1.307,224.208,1.048,-1.352,223.038,-6,-16,-12,0.018,0.024,-1.000,0.004,0.001,-0.002,1.000,1.327,0.004,1.322,-0.366,0.0000000,0.0000000,0.000,0.000,0.000,65.53,00,12.428,0.000,0,131,0,0,0,0,0,0,0,0,0,0,0
385166.03, 11:59:10.03,0,0.829,-1.282,224.207,0.911,-1.455,224.038,5,-4,44,0.016,0.025,-1.000,0.001,0.004,-0.001,1.000,1.326,0.004,1.340,0.194,0.0000000,0.0000000,0.000,0.000,0.000,65.53,00,12.428,0.000,0,131,0,0,0,0,0,0,0,0,0,0,0
385166.25, 11:59:10.25,0,0.972,-1.319,224.205,1.134,-1.329,224.878,50,-8,-48,0.020,0.023,-0.997,0.001,-0.000,0.002,0.997,1.348,0.012,1.403,-0.035,0.0000000,0.0000000,0.000,0.000,0.000,65.53,00,12.427,0.000,0,131,0,0,0,0,0,0,0,0,0,0,0
385166.44, 11:59:10.44,0,0.939,-1.205,224.205,0.956,-1.152,223.238,-14,40,-29,0.017,0.020,-0.999,-0.001,-0.000,-0.000,0.999,1.351,0.011,1.364,0.565,0.0000000,0.0000000,0.000,0.000,0.000,65.53,00,12.426,0.000,0,131,0,0,0,0,0,0,0,0,0,0,0
385166.66, 11:59:10.66,0,1.021,-1.237,224.203,0.968,-1.129,224.458,-90,57,26,0.017,0.020,-0.997,-0.002,-0.002,0.001,0.997,1.351,0.009,1.365,0.186,0.0000000,0.0000000,0.000,0.000,0.000,65.53,00,12.430,0.000,0,131,0,0,0,0,0,0,0,0,0,0,0
385166.85, 11:59:10.85,0,0.909,-1.219,224.201,0.951,-1.083,224.308,-67,41,30,0.017,0.019,-1.000,0.001,-0.002,-0.002,1.000,1.376,0.020,1.444,0.262,0.0000000,0.0000000,0.000,0.000,0.000,65.53,00,12.428,0.000,0,131,0,0,0,0,0,0,0,0,0,0,0
385167.06, 11:59:11.06,0,0.965,-1.302,224.200,1.054,-1.547,223.408,109,-10,-21,0.018,0.027,-1.000,0.001,0.002,-0.001,1.000,1.399,0.031,1.398,-0.494,0.0000000,0.0000000,0.000,0.000,0.000,65.53,00,12.429,0.000,0,131,0,0,0,0,0,0,0,0,0,0,0
385167.26, 11:59:11.26,0,0.994,-1.314,224.210,0.808,-1.072,224.938,67,-32,-48,0.014,0.019,-0.997,-0.002,-0.005,0.001,0.998,1.409,0.033,1.511,1.035,0.0000000,0.0000000,0.000,0.000,0.000,65.53,00,12.425,0.000,0,131,0,0,0,0,0,0,0,0,0,0,0
385167.44, 11:59:11.44,0,0.960,-1.254,224.227,0.790,-1.026,223.718,70,25,28,0.014,0.018,-1.001,-0.000,-0.004,-0.001,1.000,1.443,0.048,1.457,-0.287,0.0000000,0.0000000,0.000,0.000,0.000,65.53,00,12.416,0.000,0,131,0,0,0,0,0,0,0,0,0,0,0
385167.67, 11:59:11.67,0,0.920,-1.246,224.227,0.527,-1.198,223.818,35,-56,8,0.009,0.021,-0.995,-0.004,-0.000,0.005,0.995,1.452,0.049,1.441,-0.147,0.0000000,0.0000000,0.000,0.000,0.000,65.53,00,12.428,0.000,0,131,0,0,0,0,0,0,0,0,0,0,0
385167.87, 11:59:11.87,0,0.771,-1.201,224.187,0.470,-1.083,224.038,52,-17,15,0.008,0.019,-0.997,-0.000,-0.002,0.000,0.998,1.465,0.049,1.469,0.126,0.0000000,0.0000000,0.000,0.000,0.000,65.53,00,12.424,0.000,0,131,0,0,0,0,0,0,0,0,0,0,0
385168.07, 11:59:12.07,0,0.687,-1.209,224.133,0.504,-1.375,223.408,20,-17,32,0.009,0.024,-1.001,0.003,0.002,-0.003,1.001,1.463,0.046,1.466,0.508,0.0000000,0.0000000,0.000,0.000,0.000,65.53,00,12.430,0.000,0,131,0,0,0,0,0,0,0,0,0,0,0
385168.27, 11:59:12.27,0,0.612,-1.190,224.072,0.372,-0.963,223.678,69,29,-21,0.006,0.017,-1.001,0.002,-0.002,-0.001,1.000,1.467,0.044,1.423,-0.337,0.0000000,0.0000000,0.000,0.000,0.000,65.53,00,12.426,0.000,0,131,0,0,0,0,0,0,0,0,0,0,0
385168.47, 11:59:12.47,0,0.530,-1.212,223.991,-0.017,-1.163,222.598,34,74,7,-0.000,0.020,-1.000,-0.004,-0.002,-0.000,1.000,1.466,0.038,1.420,-0.184,0.0000000,0.0000000,0.000,0.000,0.000,65.53,00,12.420,0.000,0,131,0,0,0,0,0,0,0,0,0,0,0
385168.68, 11:59:12.68,0,0.399,-1.170,223.878,0.252,-1.083,223.208,-52,-75,74,0.004,0.019,-0.999,0.002,-0.001,0.001,1.000,1.468,0.036,1.438,-0.593,0.0000000,0.0000000,0.000,0.000,0.000,65.53,00,12.430,0.000,0,131,0,0,0,0,0,0,0,0,0,0,0
385168.88, 11:59:12.88,0,0.332,-1.146,223.792,0.178,-1.152,222.598,66,-29,2,0.003,0.020,-1.001,0.002,0.000,-0.001,1.000,1.466,0.031,1.464,0.450,0.0000000,0.0000000,0.000,0.000,0.000,65.53,00,12.423,0.000,0,131,0,0,0,0,0,0,0,0,0,0,0
385169.09, 11:59:13.09,0,0.215,-1.117,223.648,-0.069,-0.980,221.988,-63,20,28,-0.001,0.017,-1.002,-0.003,-0.002,-0.002,1.001,1.452,0.021,1.366,-0.517,0.0000000,0.0000000,0.000,0.000,0.000,65.53,00,12.426,0.000,0,131,0,0,0,0,0,0,0,0,0,0,0
385169.29, 11:59:13.29,0,0.091,-1.091,223.468,0.075,-0.854,221.958,-37,-19,-20,0.001,0.015,-1.002,0.001,-0.002,0.000,1.001,1.458,0.023,1.479,-0.003,0.0000000,0.0000000,0.000,0.000,0.000,65.53,00,12.426,0.000,0,131,0,0,0,0,0,0,0,0,0,0,0
385169.5, 11:59:13.50,0,0.088,-1.115,223.277,0.012,-1.037,223.278,64,44,-13,0.000,0.018,-1.001,-0.001,-0.001,0.001,1.000,1.460,0.022,1.461,0.180,0.0000000,0.0000000,0.000,0.000,0.000,65.53,00,12.429,0.000,0,131,0,0,0,0,0,0,0,0,0,0,0
385169.69, 11:59:13.69,0,0.059,-1.138,223.233,-0.051,-1.301,222.838,21,1,-27,-0.001,0.023,-0.999,-0.001,0.002,0.001,0.999,1.462,0.018,1.436,-0.473,0.0000000,0.0000000,0.000,0.000,0.000,65.53,00,12.426,0.000,0,131,0,0,0,0,0,0,0,0,0,0,0
385169.9, 11:59:13.90,0,-0.015,-1.114,223.077,0.092,-0.992,222.328,-7,19,8,0.002,0.017,-1.000,0.003,-0.002,0.000,1.000,1.456,0.012,1.381,-0.884,0.0000000,0.0000000,0.000,0.000,0.000,65.53,00,12.423,0.000,0,131,0,0,0,0,0,0,0,0,0,0,0
385170.1, 11:59:14.10,0,-0.073,-1.144,222.929,-0.074,-1.221,223.308,-58,-10,24,-0.001,0.021,-0.999,0.000,0.001,-0.001,1.000,1.441,0.001,1.455,0.692,0.0000000,0.0000000,0.000,0.000,0.000,65.53,00,12.429,0.000,0,131,0,0,0,0,0,0,0,0,0,0,0
385170.31, 11:59:14.31,0,-0.008,-1.055,222.926,0.046,-0.997,223.678,47,53,16,0.001,0.017,-0.999,-0.000,-0.000,-0.000,0.999,1.446,0.003,1.481,0.384,0.0000000,0.0000000,0.000,0.000,0.000,65.53,00,12.426,0.000,0,131,0,0,0,0,0,0,0,0,0,0,0
385170.51, 11:59:14.51,0,0.043,-1.040,222.888,0.075,-1.152,223.078,47,14,6,0.001,0.020,-0.999,0.000,0.002,0.001,0.999,1.452,0.006,1.458,0.012,0.0000000,0.0000000,0.000,0.000,0.000,65.53,00,12.431,0.000,0,131,0,0,0,0,0,0,0,0,0,0,0
385170.72, 11:59:14.72,0,0.032,-1.042,222.759,-0.040,-1.037,221.988,64,-22,8,-0.001,0.018,-1.001,-0.000,-0.000,-0.001,1.000,1.464,0.012,1.525,0.493,0.0000000,0.0000000,0.000,0.000,0.000,65.53,00,12.425,0.000,0,131,0,0,0,0,0,0,0,0,0,0,0
385170.92, 11:59:14.92,0,-0.012,-1.028,222.733,0.195,-1.318,223.108,-85,35,27,0.003,0.023,-1.003,0.003,0.005,-0.003,1.002,1.469,0.012,1.416,-0.505,0.0000000,0.0000000,0.000,0.000,0.000,65.53,00,12.429,0.000,0,131,0,0,0,0,0,0,0,0,0,0,0
385171.12, 11:59:15.12,0,0.041,-1.080,222.701,-0.057,-1.118,222.028,5,-1,66,-0.001,0.019,-0.998,-0.001,0.000,0.002,0.998,1.468,0.009,1.511,0.554,0.0000000,0.0000000,0.000,0.000,0.000,65.53,00,12.431,0.000,0,131,0,0,0,0,0,0,0,0,0,0,0
385171.32, 11:59:15.32,0,-0.015,-1.077,222.638,-0.155,-1.221,220.878,35,-3,12,-0.003,0.021,-1.000,-0.002,0.003,-0.000,1.000,1.475,0.010,1.514,0.570,51.7120248,-0.2102203,146.698,-0.050,0.060,8.98,23808,12.426,0.000,0,131,0,0,0,0,0,0,0,0,0,0,0
385171.52, 11:59:15.52,0,-0.024,-1.064,222.614,-0.183,-1.020,222.568,-69,6,-4,-0.003,0.018,-1.000,-0.001,-0.000,0.000,1.000,1.492,0.017,1.518,-0.126,51.7120245,-0.2102205,146.730,-0.030,0.040,6.48,23808,12.427,0.000,0,131,0,0,0,0,0,0,0,0,0,0,0
385171.72, 11:59:15.72,0,-0.067,-1.067,222.587,-0.212,-0.934,221.588,17,35,-32,-0.004,0.016,-1.001,-0.002,-0.002,0.001,1.000,1.504,0.023,1.543,0.546,51.7120240,-0.2102195,146.706,0.010,-0.010,6.30,23808,12.429,0.000,0,131,0,0,0,0,0,0,0,0,0,0,0
385171.93, 11:59:15.93,0,-0.055,-0.995,222.582,-0.023,-0.734,221.788,-9,49,11,-0.000,0.013,-0.997,0.000,-0.002,0.002,0.997,1.508,0.019,1.513,0.193,51.7120241,-0.2102192,146.708,-0.010,0.010,5.43,23808,12.427,0.000,0,3,0,0,0,0,0,0,0,0,0,0,0
385172.12, 11:59:16.12,0,-0.035,-0.978,222.529,-0.166,-0.917,221.818,69,-6,-5,-0.003,0.016,-0.998,-0.001,-0.001,0.001,0.998,1.516,0.020,1.538,0.299,51.7120240,-0.2102186,146.726,0.010,-0.030,4.86,23808,12.431,0.000,0,7,0,0,0,0,0,0,0,0,0,0,0
385172.35, 11:59:16.35,0,-0.047,-1.000,222.419,-0.120,-1.020,219.018,14,-39,-48,-0.002,0.018,-1.002,0.001,-0.002,-0.001,1.001,1.530,0.027,1.567,0.286,51.7120234,-0.2102178,146.770,0.000,0.010,4.46,23811,12.427,0.000,0,7,0,0,0,0,0,0,0,0,0,0,0
385172.53, 11:59:16.53,0,-0.115,-1.013,222.221,0.120,-1.066,218.038,79,-37,-1,0.002,0.019,-0.998,0.005,0.000,0.001,0.998,1.529,0.022,1.518,0.089,51.7120232,-0.2102174,146.796,0.000,0.000,4.15,23811,12.431,0.000,0,7,0,0,0,0,0,0,0,0,0,0,0
385172.74, 11:59:16.74,0,-0.086,-0.983,222.025,-0.189,-1.106,218.888,50,20,15,-0.003,0.019,-1.000,-0.001,0.002,-0.001,1.000,1.540,0.026,1.605,0.897,51.7120231,-0.2102168,146.842,-0.020,0.020,3.90,23811,12.430,0.000,0,7,0,0,0,0,0,0,0,0,0,0,0
385172.94, 11:59:16.94,0,-0.073,-1.039,221.820,-0.069,-1.089,218.548,-50,-25,54,-0.001,0.019,-0.998,0.000,0.000,0.001,0.998,1.541,0.023,1.523,0.131,51.7120233,-0.2102162,146.839,-0.020,0.050,3.68,23811,12.426,0.000,0,7,0,0,0,0,0,0,0,0,0,0,0
385173.15, 11:59:17.15,0,-0.041,-1.009,221.615,-0.114,-1.043,218.508,98,-40,-28,-0.002,0.018,-1.003,-0.001,0.000,-0.004,1.002,1.552,0.027,1.597,0.449,51.7120235,-0.2102158,146.846,-0.040,0.050,3.51,23811,12.430,0.000,0,7,0,0,0,0,0,0,0,0,0,0,0
385173.36, 11:59:17.36,0,-0.013,-0.918,221.415,-0.120,-0.843,217.188,11,-60,-39,-0.002,0.015,-0.999,-0.001,-0.001,0.001,0.999,1.563,0.030,1.590,0.308,51.7120235,-0.2102154,146.843,-0.040,0.050,3.36,23811,12.426,0.000,0,7,0,0,0,0,0,0,0,0,0,0,0
385173.55, 11:59:17.55,0,-0.067,-0.950,221.202,-0.023,-1.055,219.428,-2,6,-19,-0.000,0.018,-1.001,0.001,0.002,-0.001,1.000,1.588,0.041,1.596,-0.591,51.7120235,-0.2102150,146.849,-0.020,0.040,3.23,-8957,12.429,0.000,0,7,0,0,0,0,0,0,0,0,0,0,0
385173.77, 11:59:17.77,0,-0.058,-0.973,221.002,-0.040,-0.917,219.428,42,14,-33,-0.001,0.016,-0.999,-0.000,-0.001,0.002,0.999,1.611,0.048,1.655,0.125,51.7120234,-0.2102147,146.847,-0.050,0.060,3.12,-8957,12.425,0.000,0,7,0,0,0,0,0,0,0,0,0,0,0
385173.96, 11:59:17.96,0,-0.058,-0.913,220.786,-0.132,-0.980,218.888,15,-35,42,-0.002,0.017,-1.002,-0.001,0.001,-0.002,1.001,1.638,0.055,1.650,-0.350,51.7120233,-0.2102142,146.855,-0.020,0.040,3.02,-8957,12.428,0.000,0,7,0,0,0,0,0,0,0,0,0,0,0
385174.17, 11:59:18.17,0,-0.006,-0.905,220.595,-0.074,-0.843,218.888,26,-27,-47,-0.001,0.015,-1.000,-0.001,-0.001,0.000,1.000,1.647,0.055,1.607,-0.426,51.7120233,-0.2102142,146.865,-0.040,0.040,2.93,-8957,12.425,0.000,0,7,0,0,0,0,0,0,0,0,0,0,0
385174.37, 11:59:18.37,0,0.012,-0.899,220.382,0.023,-0.946,219.828,-39,-21,-144,0.000,0.017,-1.000,0.000,0.002,-0.001,1.000,1.651,0.051,1.617,-0.518,51.7120233,-0.2102141,146.864,-0.020,0.040,2.85,-8957,12.427,0.000,0,7,0,0,0,0,0,0,0,0,0,0,0
385174.57, 11:59:18.57,0,-0.010,-0.945,220.182,-0.086,-1.055,218.238,27,13,59,-0.002,0.018,-1.000,-0.001,0.002,0.001,1.000,1.662,0.055,1.718,0.711,51.7120233,-0.2102141,146.848,-0.010,0.000,2.78,-8957,12.430,0.000,0,7,0,0,0,0,0,0,0,0,0,0,0
385174.78, 11:59:18.78,0,0.010,-0.962,219.976,0.241,-0.929,219.388,0,25,-23,0.004,0.016,-0.998,0.004,-0.001,0.001,0.999,1.693,0.065,1.722,-0.070,51.7120235,-0.2102142,146.815,0.000,0.000,2.71,-8957,12.419,0.000,0,7,0,0,0,0,0,0,0,0,0,0,0
385174.98, 11:59:18.98,0,0.085,-0.950,219.765,0.029,-1.037,219.428,-85,35,23,0.001,0.018,-0.999,-0.000,0.002,0.002,0.999,1.709,0.067,1.658,-0.451,51.7120236,-0.2102144,146.776,-0.010,0.020,2.65,-8957,12.426,0.000,0,7,0,0,0,0,0,0,0,0,0,0,0
385175.18, 11:59:19.18,0,0.059,-0.885,219.566,0.178,-1.135,218.338,-52,-38,18,0.003,0.020,-0.999,0.002,0.006,0.000,1.000,1.726,0.069,1.750,-0.158,51.7120236,-0.2102144,146.776,-0.010,0.020,2.65,-8957,12.422,0.000,0,7,0,0,0,0,0,0,0,0,0,0,0
385175.38, 11:59:19.38,0,0.052,-0.884,219.376,0.109,-1.020,218.108,20,-48,-8,0.002,0.018,-0.998,0.001,0.003,0.002,0.998,1.734,0.068,1.705,-0.069,51.7120237,-0.2102147,146.679,-0.010,0.030,2.54,-8957,12.423,0.000,0,7,0,0,0,0,0,0,0,0,0,0,0
385175.59, 11:59:19.59,0,0.111,-0.913,219.184,0.206,-1.118,219.458,-73,26,-6,0.004,0.019,-1.000,0.002,0.003,-0.000,1.000,1.751,0.072,1.729,-0.490,51.7120238,-0.2102149,146.639,0.000,0.010,2.49,-8957,12.432,0.000,0,7,0,0,0,0,0,0,0,0,0,0,0
385175.78, 11:59:19.78,0,0.196,-0.963,219.111,0.304,-0.946,218.988,-63,7,54,0.005,0.017,-1.002,0.002,-0.001,-0.002,1.002,1.753,0.066,1.684,-0.552,51.7120238,-0.2102151,146.612,-0.010,-0.010,2.45,-8957,12.432,0.000,0,7,0,0,0,0,0,0,0,0,0,0,0
385175.99, 11:59:19.99,0,0.288,-0.971,219.065,0.321,-0.774,219.088,67,-9,-25,0.006,0.013,-1.000,-0.000,-0.004,0.001,1.000,1.748,0.058,1.692,-0.267,51.7120238,-0.2102154,146.581,0.010,-0.010,2.41,-8957,12.424,0.000,0,7,0,0,0,0,0,0,0,0,0,0,0
385176.2, 11:59:20.20,0,0.359,-0.898,219.070,0.487,-0.854,218.608,-50,35,17,0.009,0.015,-1.001,0.002,0.000,-0.001,1.000,1.752,0.055,1.760,0.422,51.7120238,-0.2102156,146.571,-0.010,0.020,2.37,-8957,12.429,0.000,0,7,0,0,0,0,0,0,0,0,0,0,0
385176.39, 11:59:20.39,0,0.358,-1.021,219.067,0.189,-1.043,218.948,-32,-28,-39,0.003,0.018,-0.999,-0.003,-0.002,0.000,0.999,1.752,0.048,1.746,0.118,51.7120238,-0.2102158,146.555,-0.010,0.020,2.33,-8957,12.426,0.000,0,7,0,0,0,0,0,0,0,0,0,0,0
385176.61, 11:59:20.61,0,0.312,-0.973,219.064,0.000,-0.745,218.648,-3,30,29,0.000,0.013,-0.998,-0.006,-0.004,0.002,0.998,1.766,0.052,1.805,0.430,51.7120237,-0.2102159,146.534,-0.010,0.010,2.29,-8957,12.419,0.000,0,7,0,0,0,0,0,0,0,0,0,0,0
385176.8, 11:59:20.80,0,0.252,-0.966,219.071,0.269,-1.135,220.138,70,25,-50,0.005,0.020,-0.999,0.002,0.003,0.001,0.999,1.780,0.053,1.841,1.040,51.7120236,-0.2102161,146.501,-0.010,0.000,2.23,-8957,12.425,0.000,0,7,0,0,0,0,0,0,0,0,0,0,0
385177.01, 11:59:21.01,0,0.254,-0.926,219.099,0.315,-0.774,217.568,25,43,18,0.005,0.013,-0.998,0.001,-0.002,0.001,0.998,1.801,0.059,1.856,0.832,51.7120236,-0.2102161,146.501,-0.010,0.000,2.23,-8957,12.427,0.000,0,7,0,0,0,0,0,0,0,0,0,0,0
385177.2, 11:59:21.20,0,0.249,-0.874,219.101,0.252,-0.992,219.598,39,82,-16,0.004,0.017,-1.002,0.001,0.003,-0.001,1.001,1.824,0.066,1.816,-0.424,51.7120237,-0.2102163,146.482,-0.030,0.060,2.20,-8957,12.427,0.000,0,7,0,0,0,0,0,0,0,0,0,0,0
385177.41, 11:59:21.41,0,0.281,-0.884,219.138,0.029,-0.854,218.478,-21,-35,29,0.001,0.015,-0.998,-0.004,-0.000,0.002,0.998,1.838,0.067,1.857,0.310,51.7120236,-0.2102164,146.457,-0.030,0.020,2.18,-8957,12.421,0.000,0,7,0,0,0,0,0,0,0,0,0,0,0
385177.61, 11:59:21.61,0,0.216,-0.902,219.140,0.143,-0.997,218.578,-75,30,1,0.003,0.017,-1.002,-0.001,0.001,-0.003,1.001,1.844,0.063,1.824,0.384,51.7120235,-0.2102167,146.408,-0.040,0.020,2.13,-8957,12.426,0.000,0,7,0,0,0,0,0,0,0,0,0,0,0
385177.83, 11:59:21.83,0,0.148,-0.944,219.138,0.057,-0.871,218.988,43,39,-41,0.001,0.015,-1.001,-0.000,-0.001,-0.000,1.000,1.861,0.067,1.864,-0.342,51.7120235,-0.2102167,146.408,-0.040,0.020,2.13,-8957,12.427,0.000,0,7,0,0,0,0,0,0,0,0,0,0,0
385178.03, 11:59:22.03,0,0.208,-0.875,219.146,-0.149,-0.951,219.558,59,-9,-20,-0.003,0.017,-1.000,-0.006,0.001,0.000,1.000,1.868,0.063,1.864,0.284,51.7120235,-0.2102167,146.408,-0.040,0.020,2.13,-8957,12.425,0.000,0,7,0,0,0,0,0,0,0,0,0,0,0
385178.22, 11:59:22.22,0,0.139,-0.847,219.165,-0.051,-0.699,218.888,89,22,14,-0.001,0.012,-1.002,-0.002,-0.002,-0.003,1.001,1.881,0.063,1.812,-1.057,51.7120234,-0.2102172,146.384,-0.030,0.040,2.09,-8957,12.429,0.000,0,7,0,0,0,0,0,0,0,0,0,0,0
385178.44, 11:59:22.44,0,0.105,-0.889,219.169,0.109,-0.974,219.898,-42,-87,-32,0.002,0.017,-0.999,0.000,0.001,-0.001,0.999,1.881,0.056,1.842,-0.361,51.7120233,-0.2102176,146.369,-0.010,0.030,2.05,-8957,12.422,0.000,0,7,0,0,0,0,0,0,0,0,0,0,0
385178.63, 11:59:22.63,0,0.163,-0.947,219.207,0.023,-0.825,219.998,9,-55,-24,0.000,0.014,-1.000,-0.002,-0.002,-0.001,1.000,1.897,0.060,1.847,-0.968,51.7120233,-0.2102176,146.369,-0.010,0.030,2.05,-8957,12.422,0.000,0,7,0,0,0,0,0,0,0,0,0,0,0
385178.84, 11:59:22.84,0,0.238,-0.955,219.227,0.349,-1.163,218.548,78,28,-36,0.006,0.020,-0.997,0.001,0.003,0.001,0.997,1.888,0.047,1.875,0.537,51.7120232,-0.2102180,146.367,0.020,-0.020,2.01,-8957,12.418,0.000,0,7,0,0,0,0,0,0,0,0,0,0,0
385179.05, 11:59:23.05,0,0.238,-0.955,219.227,0.349,-1.163,218.548,78,28,-36,0.006,0.020,-0.997,0.001,0.003,0.001,0.997,1.888,0.047,1.875,0.537,51.7120232,-0.2102180,146.367,0.020,-0.020,2.01,-8957,12.422,0.000,0,7,0,0,0,0,0,0,0,0,0,0,0
385179.24, 11:59:23.24,0,0.346,-0.914,219.236,0.332,-0.888,219.828,79,-57,-5,0.006,0.015,-0.998,0.000,-0.000,0.001,0.999,1.921,0.056,1.932,-0.649,51.7120229,-0.2102182,146.377,0.010,-0.030,1.97,-8957,12.423,0.000,0,7,0,0,0,0,0,0,0,0,0,0,0
385179.44, 11:59:23.44,0,0.398,-0.956,219.295,0.390,-0.825,219.318,73,-43,-35,0.007,0.014,-0.999,0.001,-0.003,-0.000,0.999,1.935,0.058,1.963,0.353,51.7120229,-0.2102182,146.377,0.010,-0.030,1.97,-8957,12.426,0.000,0,7,0,0,0,0,0,0,0,0,0,0,0
385179.65, 11:59:23.65,0,0.361,-0.982,219.340,0.029,-1.043,218.718,115,-17,-23,0.001,0.018,-1.000,-0.006,0.001,-0.001,1.000,1.947,0.058,1.981,0.846,51.7120226,-0.2102185,146.398,0.010,-0.020,1.93,-8957,12.425,0.000,0,7,0,0,0,0,0,0,0,0,0,0,0
385179.86, 11:59:23.86,0,0.281,-0.997,219.343,0.418,-0.774,219.658,-63,-30,17,0.007,0.013,-0.996,0.005,-0.004,0.002,0.996,1.972,0.064,2.020,0.196,51.7120223,-0.2102185,146.403,0.020,-0.030,1.91,-8957,12.426,0.000,0,7,0,0,0,0,0,0,0,0,0,0,0
385180.05, 11:59:24.05,0,0.287,-0.959,219.355,0.355,-1.083,219.218,-81,-35,-26,0.006,0.019,-1.004,0.004,0.002,-0.005,1.002,2.000,0.074,2.051,0.578,51.7120220,-0.2102187,146.405,0.010,-0.020,1.88,-8957,12.421,0.000,0,7,0,0,0,0,0,0,0,0,0,0,0
385180.26, 11:59:24.26,0,0.297,-0.955,219.353,0.338,-0.900,219.258,-100,-33,-13,0.006,0.016,-0.995,0.001,-0.000,0.003,0.995,2.042,0.089,2.006,-1.236,51.7120218,-0.2102188,146.411,0.000,0.010,1.86,-8957,12.425,0.000,0,7,0,0,0,0,0,0,0,0,0,0,0
385180.45, 11:59:24.45,0,0.229,-0.955,219.252,0.235,-1.026,219.158,-23,11,-3,0.004,0.018,-0.997,0.001,0.002,0.002,0.997,2.056,0.089,2.052,-0.104,51.7120216,-0.2102189,146.423,0.000,0.000,1.84,-8957,12.425,0.000,0,7,0,0,0,0,0,0,0,0,0,0,0
385180.67, 11:59:24.67,0,0.298,-0.977,219.243,0.189,-0.888,218.408,-46,20,-17,0.003,0.015,-0.995,-0.001,-0.001,0.002,0.995,2.088,0.096,2.090,-0.485,51.7120216,-0.2102189,146.423,0.000,0.000,1.84,-8957,12.416,0.000,0,7,0,0,0,0,0,0,0,0,0,0,0
385180.87, 11:59:24.87,0,0.240,-0.953,219.208,0.235,-1.009,219.658,45,-29,-3,0.004,0.018,-0.998,0.000,0.001,0.001,0.998,2.101,0.094,2.118,0.516,51.7120209,-0.2102188,146.446,-0.010,0.020,1.81,-8957,12.426,0.000,0,7,0,0,0,0,0,0,0,0,0,0,0
385181.07, 11:59:25.07,0,0.310,-0.927,219.207,0.390,-0.997,219.318,68,44,-2,0.007,0.017,-0.998,-0.000,0.002,-0.000,0.998,2.118,0.093,2.091,-0.106,51.7120207,-0.2102189,146.454,-0.040,0.040,1.79,-8957,12.424,0.000,0,7,0,0,0,0,0,0,0,0,0,0,0
385181.27, 11:59:25.27,0,0.307,-0.972,219.215,0.172,-1.118,218.718,127,-70,16,0.003,0.019,-0.998,-0.001,0.002,0.001,0.998,2.138,0.097,2.164,0.370,51.7120205,-0.2102188,146.457,-0.040,0.040,1.77,-8957,12.420,0.000,0,7,0,0,0,0,0,0,0,0,0,0,0
385181.68, 11:59:25.68,0,0.291,-0.928,219.174,0.218,-0.774,220.198,26,39,24,0.004,0.013,-0.998,-0.000,-0.002,0.002,0.998,2.134,0.075,2.047,0.188,51.7120199,-0.2102186,146.463,-0.020,0.030,1.74,-8957,12.424,0.000,0,7,0,0,0,0,0,0,0,0,0,0,0
385181.88, 11:59:25.88,0,0.203,-0.886,219.176,0.178,-1.129,219.048,-28,-58,-24,0.003,0.020,-0.998,0.000,0.005,0.001,0.998,2.116,0.057,2.063,0.295,51.7120197,-0.2102185,146.466,-0.030,0.060,1.72,-8957,12.422,0.000,0,7,0,0,0,0,0,0,0,0,0,0,0
385182.09, 11:59:26.09,0,0.176,-0.879,219.177,0.206,-0.745,219.218,-13,41,47,0.004,0.013,-0.998,0.003,-0.001,0.001,0.998,2.129,0.058,2.148,0.154,51.7120195,-0.2102184,146.467,-0.020,0.020,1.71,-8957,12.420,0.000,0,7,0,0,0,0,0,0,0,0,0,0,0
385182.3, 11:59:26.30,0,0.259,-0.932,219.182,0.390,-0.866,219.658,97,24,6,0.007,0.015,-1.000,0.002,-0.002,0.000,1.000,2.122,0.049,2.082,0.169,51.7120193,-0.2102183,146.473,-0.020,0.030,1.69,-8957,12.421,0.000,0,7,0,0,0,0,0,0,0,0,0,0,0
385182.49, 11:59:26.49,0,0.177,-0.954,219.183,0.120,-0.951,218.888,-1,34,0,0.002,0.017,-0.999,0.002,-0.001,0.000,0.999,2.124,0.044,2.120,0.143,51.7120191,-0.2102182,146.470,-0.030,0.030,1.68,-8957,12.427,0.000,0,7,0,0,0,0,0,0,0,0,0,0,0
385182.69, 11:59:26.69,0,0.158,-0.941,219.182,0.000,-0.929,218.948,56,-45,72,0.000,0.016,-1.000,-0.001,-0.000,0.001,1.000,2.124,0.040,2.079,-0.298,51.7120189,-0.2102181,146.480,-0.020,0.010,1.66,-8957,12.421,0.000,0,7,0,0,0,0,0,0,0,0,0,0,0
385182.9, 11:59:26.90,0,0.097,-0.872,219.190,0.000,-0.780,217.798,40,1,33,0.000,0.014,-0.997,0.000,-0.000,0.003,0.997,2.134,0.040,2.106,-0.565,51.7120188,-0.2102180,146.484,0.010,0.010,1.65,-8957,12.421,0.000,0,7,0,0,0,0,0,0,0,0,0,0,0
385183.1, 11:59:27.10,0,0.077,-0.849,219.191,0.063,-0.866,218.378,77,-74,-39,0.001,0.015,-1.000,0.000,0.001,-0.001,1.000,2.128,0.031,2.063,-0.300,51.7120186,-0.2102179,146.494,-0.010,0.000,1.64,-8957,12.419,0.000,0,7,0,0,0,0,0,0,0,0,0,0,0
385183.32, 11:59:27.32,0,0.061,-0.873,219.189,0.029,-1.089,218.718,-126,8,-28,0.001,0.019,-0.998,-0.000,0.004,0.003,0.998,2.136,0.033,2.100,-1.000,51.7120184,-0.2102177,146.495,0.000,0.020,1.62,-8957,12.417,0.000,0,7,0,0,0,0,0,0,0,0,0,0,0
385183.51, 11:59:27.51,0,0.174,-0.871,219.166,0.160,-0.906,218.888,139,-7,-7,0.003,0.016,-0.997,0.000,0.001,0.003,0.997,2.139,0.028,2.126,-0.184,51.7120182,-0.2102175,146.505,-0.010,0.010,1.61,-8957,12.424,0.000,0,7,0,0,0,0,0,0,0,0,0,0,0
385183.72, 11:59:27.72,0,0.168,-0.890,219.109,0.155,-0.888,217.698,-19,7,1,0.003,0.015,-0.997,0.000,-0.000,0.001,0.997,2.164,0.037,2.182,-0.614,51.7120179,-0.2102173,146.510,-0.010,0.000,1.60,-8957,12.428,0.000,0,7,0,0,0,0,0,0,0,0,0,0,0
385183.91, 11:59:27.91,0,0.168,-0.789,219.028,0.178,-0.963,218.748,-92,27,-63,0.003,0.017,-1.002,0.000,0.005,-0.001,1.001,2.184,0.044,2.262,0.357,51.7120178,-0.2102171,146.517,0.000,0.000,1.59,-8957,12.419,0.000,0,7,0,0,0,0,0,0,0,0,0,0,0
385184.12, 11:59:28.12,0,0.123,-0.857,218.952,0.160,-0.734,219.828,-37,-32,15,0.003,0.013,-1.001,0.000,-0.002,-0.001,1.000,2.212,0.053,2.210,-0.160,51.7120176,-0.2102169,146.526,0.010,-0.020,1.58,-8957,12.421,0.000,0,7,0,0,0,0,0,0,0,0,0,0,0
385184.32, 11:59:28.32,0,0.103,-0.936,218.951,0.000,-0.997,218.948,43,-4,-25,0.000,0.017,-0.999,-0.001,0.000,0.001,0.999,2.210,0.045,2.224,0.351,51.7120174,-0.2102168,146.534,-0.020,0.010,1.57,-8957,12.423,0.000,0,7,0,0,0,0,0,0,0,0,0,0,0
385184.53, 11:59:28.53,0,0.140,-0.829,218.950,0.315,-0.762,219.528,79,30,-46,0.005,0.013,-0.997,0.005,-0.001,0.003,0.997,2.220,0.045,2.249,0.626,51.7120172,-0.2102165,146.531,0.000,0.000,1.55,-8957,12.427,0.000,0,7,0,0,0,0,0,0,0,0,0,0,0
385184.73, 11:59:28.73,0,0.149,-0.840,218.952,0.292,-0.573,219.388,70,0,0,0.005,0.010,-1.005,0.003,-0.004,-0.004,1.003,2.235,0.050,2.305,0.780,51.7120171,-0.2102164,146.543,0.000,0.030,1.54,-8957,12.418,0.000,0,7,0,0,0,0,0,0,0,0,0,0,0
385184.93, 11:59:28.93,0,0.133,-0.850,218.958,0.046,-0.871,218.168,56,13,-51,0.001,0.015,-1.002,0.001,0.000,-0.002,1.001,2.248,0.051,2.258,0.452,51.7120169,-0.2102163,146.547,-0.020,0.010,1.53,-8957,12.426,0.000,0,7,0,0,0,0,0,0,0,0,0,0,0
385185.14, 11:59:29.14,0,0.096,-0.897,218.942,0.143,-0.820,218.208,-77,-6,-1,0.003,0.014,-1.001,0.002,-0.001,-0.000,1.000,2.263,0.054,2.317,0.887,51.7120168,-0.2102162,146.555,-0.010,0.050,1.53,-8957,12.426,0.000,0,7,0,0,0,0,0,0,0,0,0,0,0
385185.33, 11:59:29.33,0,0.082,-0.814,218.872,0.023,-0.888,218.108,-55,-22,1,0.000,0.015,-0.999,-0.000,0.002,0.002,0.999,2.270,0.052,2.252,0.250,51.7120166,-0.2102160,146.557,-0.020,0.030,1.52,-8957,12.423,0.000,0,7,0,0,0,0,0,0,0,0,0,0,0
385185.54, 11:59:29.54,0,0.045,-0.836,218.834,0.120,-0.820,218.338,-43,-20,24,0.002,0.014,-0.999,0.002,0.000,0.000,0.999,2.282,0.052,2.358,1.135,51.7120164,-0.2102159,146.562,-0.020,0.020,1.51,-8957,12.423,0.000,0,7,0,0,0,0,0,0,0,0,0,0,0
385185.75, 11:59:29.75,0,0.092,-0.843,218.816,0.063,-0.946,218.778,-69,25,-3,0.001,0.017,-0.998,0.000,0.002,0.002,0.999,2.297,0.052,2.276,-0.101,51.7120162,-0.2102157,146.562,-0.020,0.020,1.50,-8957,12.420,0.000,0,7,0,0,0,0,0,0,0,0,0,0,0
385185.95, 11:59:29.95,0,0.126,-0.869,218.745,0.258,-0.871,219.898,-105,16,-20,0.004,0.015,-0.999,0.002,-0.000,0.001,0.999,2.296,0.046,2.298,0.697,51.7120160,-0.2102156,146.568,-0.010,0.010,1.49,-8957,12.423,0.000,0,7,0,0,0,0,0,0,0,0,0,0,0
385186.15, 11:59:30.15,0,0.117,-0.849,218.751,-0.091,-0.871,218.778,-56,11,-28,-0.002,0.015,-0.998,-0.003,0.001,0.002,0.998,2.294,0.040,2.237,-0.545,51.7120159,-0.2102154,146.574,-0.010,0.040,1.48,-8957,12.424,0.000,0,7,0,0,0,0,0,0,0,0,0,0,0
385186.36, 11:59:30.36,0,0.055,-0.798,218.749,0.046,-0.963,218.008,-11,24,-16,0.001,0.017,-1.001,0.000,0.005,0.001,1.000,2.305,0.043,2.340,0.272,51.7120157,-0.2102152,146.579,-0.010,0.010,1.47,-8957,12.427,0.000,0,7,0,0,0,0,0,0,0,0,0,0,0
385186.55, 11:59:30.55,0,0.033,-0.760,218.754,-0.120,-0.573,218.508,-17,-62,45,-0.002,0.010,-1.001,-0.002,-0.003,-0.002,1.000,2.326,0.047,2.339,-0.112,51.7120155,-0.2102150,146.574,-0.010,0.020,1.47,-8957,12.421,0.000,0,7,0,0,0,0,0,0,0,0,0,0,0
385186.75, 11:59:30.75,0,0.043,-0.822,218.759,-0.006,-0.774,218.678,67,-10,-28,-0.000,0.013,-0.999,-0.000,-0.002,0.002,0.999,2.337,0.049,2.349,0.266,51.7120154,-0.2102148,146.572,-0.020,0.010,1.46,-8957,12.420,0.000,0,7,0,0,0,0,0,0,0,0,0,0,0
385186.97, 11:59:30.97,0,-0.056,-0.820,218.759,-0.103,-0.579,218.208,51,-19,-26,-0.002,0.010,-1.001,-0.000,-0.004,0.000,1.000,2.349,0.049,2.352,0.172,51.7120152,-0.2102146,146.570,0.000,-0.010,1.45,-8957,12.422,0.000,0,7,0,0,0,0,0,0,0,0,0,0,0
385187.16, 11:59:31.16,0,-0.010,-0.807,218.758,0.063,-0.825,219.658,-60,21,40,0.001,0.014,-1.002,0.001,-0.001,-0.001,1.001,2.371,0.054,2.400,-0.154,51.7120151,-0.2102145,146.570,0.010,-0.020,1.44,-8957,12.431,0.000,0,7,0,0,0,0,0,0,0,0,0,0,0
385187.37, 11:59:31.37,0,-0.010,-0.864,218.765,0.012,-0.866,217.628,-7,-33,5,0.000,0.015,-1.001,0.000,-0.001,-0.000,1.000,2.387,0.057,2.384,-0.195,51.7120151,-0.2102144,146.568,0.010,0.000,1.44,-8957,12.426,0.000,0,7,0,0,0,0,0,0,0,0,0,0,0
385187.57, 11:59:31.57,0,-0.047,-0.774,218.738,-0.235,-0.734,218.508,9,64,-19,-0.004,0.013,-0.999,-0.003,0.000,0.001,0.999,2.396,0.056,2.439,0.836,51.7120150,-0.2102142,146.566,0.000,-0.010,1.43,-8957,12.423,0.000,0,7,0,0,0,0,0,0,0,0,0,0,0
385187.78, 11:59:31.78,0,0.012,-0.767,218.737,-0.034,-0.780,218.508,23,-44,-17,-0.001,0.014,-0.997,-0.002,0.000,0.003,0.997,2.411,0.057,2.424,0.183,51.7120149,-0.2102141,146.563,0.000,0.000,1.42,-8957,12.429,0.000,0,7,0,0,0,0,0,0,0,0,0,0,0
385187.99, 11:59:31.99,0,0.087,-0.797,218.683,0.304,-0.825,218.508,35,36,28,0.005,0.014,-0.998,0.002,0.001,0.001,0.998,2.432,0.061,2.415,-0.387,51.7120149,-0.2102140,146.557,-0.010,0.020,1.42,-8957,12.426,0.000,0,7,0,0,0,0,0,0,0,0,0,0,0
385188.18, 11:59:32.18,0,0.105,-0.778,218.655,0.160,-0.997,219.758,-15,-40,37,0.003,0.017,-1.002,0.000,0.004,-0.002,1.001,2.441,0.062,2.468,0.463,51.7120148,-0.2102138,146.551,0.000,-0.010,1.41,-8957,12.425,0.000,0,7,0,0,0,0,0,0,0,0,0,0,0
385188.38, 11:59:32.38,0,0.193,-0.829,218.656,0.040,-0.934,218.778,-60,-12,8,0.001,0.016,-0.998,-0.002,0.002,0.003,0.998,2.457,0.066,2.464,0.258,51.7120148,-0.2102137,146.543,0.000,0.000,1.40,-8957,12.427,0.000,0,7,0,0,0,0,0,0,0,0,0,0,0
385188.59, 11:59:32.59,0,0.123,-0.815,218.671,-0.040,-0.717,218.278,-90,-10,-14,-0.001,0.013,-1.003,-0.002,-0.002,-0.003,1.002,2.481,0.072,2.566,0.679,51.7120147,-0.2102136,146.534,0.010,0.000,1.40,-8957,12.432,0.000,0,7,0,0,0,0,0,0,0,0,0,0,0
385188.79, 11:59:32.79,0,0.129,-0.855,218.672,0.109,-0.820,218.848,-10,-6,31,0.002,0.014,-0.996,0.000,-0.001,0.005,0.996,2.519,0.085,2.549,0.120,51.7120146,-0.2102135,146.526,-0.010,0.010,1.39,-8957,12.420,0.000,0,7,0,0,0,0,0,0,0,0,0,0,0
385188.99, 11:59:32.99,0,0.169,-0.788,218.696,-0.114,-0.728,218.068,36,17,21,-0.002,0.013,-1.004,-0.004,0.000,-0.003,1.003,2.550,0.092,2.583,0.180,51.7120146,-0.2102134,146.511,-0.010,0.020,1.39,-8957,12.423,0.000,0,7,0,0,0,0,0,0,0,0,0,0,0
385189.19, 11:59:33.19,0,0.181,-0.761,218.696,0.195,-0.619,218.108,3,-76,12,0.003,0.011,-1.001,0.001,-0.002,-0.000,1.000,2.574,0.096,2.574,-0.035,51.7120145,-0.2102133,146.504,-0.020,0.020,1.38,-8957,12.428,0.000,0,7,0,0,0,0,0,0,0,0,0,0,0
385189.4, 11:59:33.40,0,0.133,-0.725,218.710,0.143,-0.642,218.578,95,2,45,0.003,0.011,-0.997,0.002,-0.001,0.004,0.997,2.594,0.097,2.635,0.818,51.7120145,-0.2102132,146.499,-0.010,0.040,1.37,-8957,12.422,0.000,0,7,0,0,0,0,0,0,0,0,0,0,0
385189.58, 11:59:33.58,0,0.126,-0.794,218.715,0.040,-0.636,219.158,-44,29,33,0.001,0.011,-0.999,-0.001,-0.002,0.001,0.999,2.603,0.092,2.552,-0.022,51.7120144,-0.2102131,146.492,-0.020,0.020,1.37,-8957,12.422,0.000,0,7,0,0,0,0,0,0,0,0,0,0,0
385189.81, 11:59:33.81,0,0.289,-0.789,218.721,0.504,-0.808,219.218,-70,21,39,0.009,0.014,-1.001,0.002,0.001,-0.002,1.000,2.603,0.084,2.568,0.102,51.7120143,-0.2102130,146.490,-0.020,0.030,1.36,-8957,12.423,0.000,0,7,0,0,0,0,0,0,0,0,0,0,0
385190.02, 11:59:34.02,0,0.407,-0.766,218.795,0.567,-0.820,218.988,-29,-1,21,0.010,0.014,-0.999,0.000,0.001,-0.001,0.999,2.619,0.084,2.614,0.022,51.7120142,-0.2102128,146.478,-0.010,0.030,1.35,-8957,12.417,0.000,0,7,0,0,0,0,0,0,0,0,0,0,0
385190.21, 11:59:34.21,0,0.400,-0.806,218.862,0.613,-0.688,218.108,-91,-3,20,0.011,0.012,-1.004,0.001,-0.002,-0.003,1.002,2.619,0.078,2.543,-0.258,51.7120142,-0.2102128,146.478,-0.010,0.030,1.35,-8957,12.425,0.000,0,7,0,0,0,0,0,0,0,0,0,0,0
385190.41, 11:59:34.41,0,0.470,-0.775,218.871,0.659,-0.906,218.068,37,-15,33,0.011,0.016,-1.000,0.003,0.004,0.001,1.000,2.606,0.063,2.592,0.737,51.7120141,-0.2102127,146.456,-0.030,0.030,1.34,-8957,12.425,0.000,0,7,0,0,0,0,0,0,0,0,0,0,0
385190.63, 11:59:34.63,0,0.471,-0.819,218.867,0.596,-0.900,218.718,11,-27,1,0.010,0.016,-0.999,0.003,-0.000,0.000,0.999,2.622,0.064,2.680,0.607,51.7120141,-0.2102127,146.456,-0.030,0.030,1.34,-8957,12.423,0.000,0,7,0,0,0,0,0,0,0,0,0,0,0
385190.82, 11:59:34.82,0,0.485,-0.782,218.868,0.533,-0.636,217.938,10,18,45,0.009,0.011,-0.999,0.001,-0.002,-0.000,0.999,2.647,0.069,2.652,-0.045,51.7120140,-0.2102127,146.436,-0.010,0.010,1.33,-8957,12.417,0.000,0,7,0,0,0,0,0,0,0,0,0,0,0
385191.02, 11:59:35.02,0,0.602,-0.811,218.874,0.533,-0.888,218.948,-29,-8,62,0.009,0.015,-1.001,-0.002,0.000,-0.001,1.000,2.667,0.074,2.691,0.096,51.7120140,-0.2102127,146.436,-0.010,0.010,1.33,-8957,12.429,0.000,0,7,0,0,0,0,0,0,0,0,0,0,0
385191.24, 11:59:35.24,0,0.632,-0.865,218.996,0.418,-0.900,219.698,-31,9,17,0.007,0.016,-0.998,-0.003,-0.000,0.001,0.998,2.683,0.074,2.700,0.370,51.7120140,-0.2102127,146.425,0.000,0.000,1.32,-8957,12.423,0.000,0,7,0,0,0,0,0,0,0,0,0,0,0
385191.43, 11:59:35.43,0,0.509,-0.885,219.161,0.275,-0.854,218.308,95,-9,-25,0.005,0.015,-0.999,-0.003,-0.001,-0.001,0.999,2.707,0.080,2.652,-0.992,51.7120140,-0.2102127,146.425,0.000,0.000,1.32,-8957,12.425,0.000,0,7,0,0,0,0,0,0,0,0,0,0,0
385191.63, 11:59:35.63,0,0.490,-0.891,219.161,0.596,-0.837,218.408,28,-44,25,0.010,0.015,-0.999,0.004,-0.001,0.000,0.999,2.713,0.075,2.710,0.024,51.7120141,-0.2102127,146.394,-0.010,0.020,1.31,-8957,12.421,0.000,0,7,0,0,0,0,0,0,0,0,0,0,0
