gps_sow, time,system_timestamp,angle_pitch,angle_roll,angle_yaw,pitch_reference,roll_reference,yaw_reference,ang_vel__pitch,ang_vel__roll,ang_vel__yaw,total_acc__x,total_acc__y,total_acc__z,trans__acc__x,trans__acc__y,trans__acc__z,total_acc_,barometer_height,dheight,height_reference,dheight_reference,latitude,longitude,height,speed_x,speed_y,horizontal_accuracy,gps_status,battery_1,battery_2,status,flightmode,pressure,temp__gyro,temp__adc,pitch,roll,yaw,thrust,debug1,debug2,debug3,debug4,
388709.24, 11:58:29.24,0,0.000,0.000,0.000,0.000,0.000,0.000,0,0,0,0.000,0.000,0.000,0.000,0.000,0.000,0.000,0.000,0.000,0.000,0.000,0.0000000,0.0000000,0.000,0.000,0.000,0.00,00,12.483,0.000,0,129,0,0,0,0,0,0,0,0,0,0,0
388709.26, 11:58:29.26,0,0.000,0.000,0.000,0.000,0.000,0.000,0,0,0,0.000,0.000,0.000,0.000,0.000,0.000,0.000,0.000,0.000,0.000,0.000,0.0000000,0.0000000,0.000,0.000,0.000,0.00,00,12.480,0.000,0,129,0,0,0,0,0,0,0,0,0,0,0
388709.46, 11:58:29.46,0,90.000,0.000,253.630,90.000,0.000,262.116,-2,-29,10,1.144,-1.216,-1.585,-1.582,-1.214,-0.142,2.299,-0.050,0.034,0.058,0.589,0.0000000,0.0000000,0.000,0.000,0.000,0.00,00,12.478,0.000,0,129,0,0,0,0,0,0,0,0,0,0,0
388709.65, 11:58:29.65,0,-1.114,-1.079,221.422,-1.221,-1.095,218.996,-24,23,6,-0.021,0.019,-1.015,-0.002,0.001,-0.010,1.012,0.041,0.131,0.493,0.733,0.0000000,0.0000000,0.000,0.000,0.000,0.00,00,12.478,0.000,0,131,0,0,0,0,0,0,0,0,0,0,0
388709.86, 11:58:29.86,0,-1.131,-1.170,223.369,-1.123,-1.278,220.246,15,-10,0,-0.020,0.022,-1.014,0.000,0.001,-0.005,1.012,0.222,0.224,0.606,0.843,0.0000000,0.0000000,0.000,0.000,0.000,0.00,00,12.482,0.000,0,131,0,0,0,0,0,0,0,0,0,0,0
388710.05, 11:58:30.05,0,-1.208,-1.213,225.528,-1.255,-1.370,219.876,12,40,5,-0.022,0.024,-1.015,0.002,0.000,-0.002,1.012,0.406,0.304,0.643,0.196,0.0000000,0.0000000,0.000,0.000,0.000,0.00,00,12.476,0.000,0,131,0,0,0,0,0,0,0,0,0,0,0
388710.26, 11:58:30.26,0,-1.199,-1.275,227.407,-1.433,-1.077,221.866,17,22,-24,-0.025,0.019,-1.015,-0.003,-0.004,-0.002,1.012,0.538,0.348,0.675,0.182,0.0000000,0.0000000,0.000,0.000,0.000,0.00,00,12.473,0.000,0,131,0,0,0,0,0,0,0,0,0,0,0
388710.46, 11:58:30.46,0,-1.238,-1.221,229.052,-1.112,-1.215,220.346,18,-46,45,-0.019,0.021,-1.010,0.002,0.000,0.004,1.008,0.648,0.376,0.696,-0.058,0.0000000,0.0000000,0.000,0.000,0.000,0.00,00,12.476,0.000,0,131,0,0,0,0,0,0,0,0,0,0,0
388710.66, 11:58:30.66,0,-1.266,-1.164,230.299,-1.438,-0.980,220.686,13,45,-26,-0.025,0.017,-1.015,-0.002,-0.002,0.000,1.012,0.755,0.399,0.837,0.771,0.0000000,0.0000000,0.000,0.000,0.000,0.00,00,12.478,0.000,0,131,0,0,0,0,0,0,0,0,0,0,0
388710.88, 11:58:30.88,0,-1.284,-1.152,231.190,-1.009,-1.140,220.446,-39,16,-2,-0.018,0.020,-1.012,0.004,-0.000,0.001,1.010,0.838,0.405,0.825,0.557,0.0000000,0.0000000,0.000,0.000,0.000,0.00,00,12.478,0.000,0,131,0,0,0,0,0,0,0,0,0,0,0
388711.07, 11:58:31.07,0,-1.251,-1.201,231.803,-1.221,-1.404,221.296,-46,-25,6,-0.021,0.025,-1.016,0.000,0.001,-0.002,1.014,0.905,0.405,0.847,0.413,0.0000000,0.0000000,0.000,0.000,0.000,0.00,00,12.479,0.000,0,131,0,0,0,0,0,0,0,0,0,0,0
388711.28, 11:58:31.28,0,-1.187,-1.169,232.190,-0.992,-1.203,220.076,-4,-16,23,-0.017,0.021,-1.017,0.001,0.002,-0.002,1.014,0.942,0.388,0.823,0.104,0.0000000,0.0000000,0.000,0.000,0.000,0.00,00,12.477,0.000,0,131,0,0,0,0,0,0,0,0,0,0,0
388711.48, 11:58:31.48,0,-1.139,-1.182,232.402,-1.226,-1.312,220.826,11,35,-3,-0.021,0.023,-1.013,-0.002,0.002,0.001,1.011,0.992,0.378,0.974,1.078,0.0000000,0.0000000,0.000,0.000,0.000,0.00,00,12.476,0.000,0,131,0,0,0,0,0,0,0,0,0,0,0
388711.68, 11:58:31.68,0,-1.108,-1.201,232.594,-1.209,-1.072,220.316,-29,7,15,-0.021,0.019,-1.013,-0.002,-0.003,-0.000,1.010,1.034,0.365,0.938,0.003,0.0000000,0.0000000,0.000,0.000,0.000,0.00,00,12.472,0.000,0,131,0,0,0,0,0,0,0,0,0,0,0
388711.88, 11:58:31.88,0,-1.221,-1.176,232.805,-1.221,-0.997,220.586,-29,40,17,-0.021,0.017,-1.009,0.002,-0.002,0.004,1.007,1.068,0.348,0.951,-0.035,0.0000000,0.0000000,0.000,0.000,0.000,65.53,00,12.475,0.000,0,131,0,0,0,0,0,0,0,0,0,0,0
388712.07, 11:58:32.07,0,-1.300,-1.161,232.694,-1.335,-1.106,218.116,23,5,19,-0.023,0.019,-1.016,0.001,-0.001,-0.001,1.013,1.110,0.340,1.008,-0.467,0.0000000,0.0000000,0.000,0.000,0.000,65.53,00,12.472,0.000,0,131,0,0,0,0,0,0,0,0,0,0,0
388712.28, 11:58:32.28,0,-1.316,-1.131,232.491,-1.484,-1.140,217.886,20,86,10,-0.026,0.020,-1.015,-0.002,0.000,-0.001,1.012,1.135,0.320,1.032,0.195,0.0000000,0.0000000,0.000,0.000,0.000,65.53,00,12.467,0.000,0,131,0,0,0,0,0,0,0,0,0,0,0
388712.49, 11:58:32.49,0,-1.300,-1.110,232.282,-1.341,-1.123,222.036,61,9,2,-0.023,0.020,-1.014,-0.000,0.000,-0.000,1.011,1.166,0.304,1.080,0.049,0.0000000,0.0000000,0.000,0.000,0.000,65.53,00,12.470,0.000,0,131,0,0,0,0,0,0,0,0,0,0,0
388712.69, 11:58:32.69,0,-1.303,-1.144,232.084,-1.318,-1.140,220.216,35,-14,-38,-0.023,0.020,-1.016,0.000,-0.001,-0.001,1.013,1.199,0.294,1.167,0.690,0.0000000,0.0000000,0.000,0.000,0.000,65.53,00,12.471,0.000,0,131,0,0,0,0,0,0,0,0,0,0,0
388712.9, 11:58:32.90,0,-1.340,-1.159,231.884,-1.284,-1.140,219.576,-67,15,-30,-0.022,0.020,-1.013,0.001,-0.001,0.001,1.011,1.236,0.283,1.165,0.112,0.0000000,0.0000000,0.000,0.000,0.000,65.53,00,12.469,0.000,0,131,0,0,0,0,0,0,0,0,0,0,0
388713.11, 11:58:33.11,0,-1.284,-1.098,231.677,-1.266,-1.203,220.956,-11,90,-47,-0.022,0.021,-1.012,-0.000,0.003,0.001,1.010,1.275,0.274,1.225,0.028,0.0000000,0.0000000,0.000,0.000,0.000,65.53,00,12.464,0.000,0,131,0,0,0,0,0,0,0,0,0,0,0
388713.3, 11:58:33.30,0,-1.275,-1.162,231.469,-1.244,-1.135,220.556,11,-44,-3,-0.022,0.020,-1.010,0.000,-0.001,0.003,1.008,1.300,0.260,1.217,0.013,0.0000000,0.0000000,0.000,0.000,0.000,65.53,00,12.470,0.000,0,131,0,0,0,0,0,0,0,0,0,0,0
388713.51, 11:58:33.51,0,-1.251,-1.198,231.279,-1.375,-1.123,219.646,46,25,66,-0.024,0.020,-1.013,-0.003,-0.001,-0.001,1.011,1.318,0.243,1.273,0.657,0.0000000,0.0000000,0.000,0.000,0.000,65.53,00,12.470,0.000,0,131,0,0,0,0,0,0,0,0,0,0,0
388713.72, 11:58:33.72,0,-1.178,-1.215,231.077,-1.112,-1.203,221.466,-33,18,-12,-0.019,0.021,-1.013,-0.001,-0.001,0.001,1.010,1.344,0.233,1.264,0.124,0.0000000,0.0000000,0.000,0.000,0.000,65.53,00,12.472,0.000,0,131,0,0,0,0,0,0,0,0,0,0,0
388713.91, 11:58:33.91,0,-1.097,-1.202,230.867,-1.089,-1.060,221.226,60,9,-28,-0.019,0.018,-1.014,-0.003,-0.003,0.000,1.011,1.344,0.208,1.144,-1.290,0.0000000,0.0000000,0.000,0.000,0.000,65.53,00,12.468,0.000,0,131,0,0,0,0,0,0,0,0,0,0,0
388714.12, 11:58:34.12,0,-1.047,-1.226,230.673,-0.906,-1.261,220.046,19,5,9,-0.016,0.022,-1.015,0.001,0.000,-0.001,1.012,1.334,0.181,1.272,0.495,0.0000000,0.0000000,0.000,0.000,0.000,65.53,00,12.469,0.000,0,131,0,0,0,0,0,0,0,0,0,0,0
388714.32, 11:58:34.32,0,-1.042,-1.226,230.451,-0.831,-1.123,221.596,-41,6,-70,-0.015,0.020,-1.012,0.004,-0.002,0.001,1.010,1.354,0.169,1.337,0.558,0.0000000,0.0000000,0.000,0.000,0.000,65.53,00,12.470,0.000,0,131,0,0,0,0,0,0,0,0,0,0,0
388714.53, 11:58:34.53,0,-0.972,-1.201,230.259,-0.957,-1.158,220.386,1,0,-23,-0.017,0.020,-1.014,-0.002,-0.001,-0.001,1.011,1.313,0.128,0.457,-8.412,0.0000000,0.0000000,0.000,0.000,0.000,65.53,00,12.466,0.000,0,131,0,0,0,0,0,0,0,0,0,0,0
388714.73, 11:58:34.73,0,-0.962,-1.288,230.049,-0.980,-1.501,220.756,1,-50,4,-0.017,0.026,-1.016,-0.000,0.002,-0.004,1.014,0.917,-0.093,0.109,0.739,0.0000000,0.0000000,0.000,0.000,0.000,65.53,00,12.467,0.000,0,131,0,0,0,0,0,0,0,0,0,0,0
388714.93, 11:58:34.93,0,-0.926,-1.286,229.840,-0.814,-1.186,221.666,5,3,4,-0.014,0.021,-1.010,0.001,-0.001,0.002,1.008,0.632,-0.241,0.151,0.397,0.0000000,0.0000000,0.000,0.000,0.000,65.53,00,12.469,0.000,0,131,0,0,0,0,0,0,0,0,0,0,0
388715.13, 11:58:35.13,0,-0.840,-1.250,229.640,-0.682,-0.906,219.876,61,-5,41,-0.012,0.016,-1.012,0.001,-0.005,0.002,1.009,0.400,-0.350,0.063,0.154,0.0000000,0.0000000,0.000,0.000,0.000,65.53,00,12.471,0.000,0,131,0,0,0,0,0,0,0,0,0,0,0
388715.34, 11:58:35.34,0,-0.889,-1.245,229.447,-0.911,-1.341,220.416,31,-17,-36,-0.016,0.023,-1.012,-0.000,0.002,0.001,1.010,0.246,-0.409,0.144,0.192,0.0000000,0.0000000,0.000,0.000,0.000,65.53,00,12.465,0.000,0,131,0,0,0,0,0,0,0,0,0,0,0
388715.55, 11:58:35.55,0,-0.913,-1.312,229.241,-1.095,-1.072,221.366,56,-21,56,-0.019,0.019,-1.014,-0.001,-0.005,-0.002,1.011,0.142,-0.437,0.148,-0.108,0.0000000,0.0000000,0.000,0.000,0.000,65.53,00,12.469,0.000,0,131,0,0,0,0,0,0,0,0,0,0,0
388715.74, 11:58:35.74,0,-0.916,-1.300,229.037,-1.055,-1.295,220.316,-47,-12,-41,-0.018,0.023,-1.013,-0.001,-0.001,0.000,1.011,0.059,-0.451,0.114,0.064,0.0000000,0.0000000,0.000,0.000,0.000,65.53,00,12.466,0.000,0,131,0,0,0,0,0,0,0,0,0,0,0
388715.94, 11:58:35.94,0,-1.009,-1.260,228.841,-1.272,-1.307,220.176,-24,27,-22,-0.022,0.023,-1.013,-0.001,0.001,0.001,1.010,0.009,-0.448,0.101,-0.443,0.0000000,0.0000000,0.000,0.000,0.000,65.53,00,12.465,0.000,0,131,0,0,0,0,0,0,0,0,0,0,0
388716.15, 11:58:36.15,0,-1.072,-1.233,228.638,-0.992,-1.324,219.156,-20,24,18,-0.017,0.023,-1.013,0.003,0.002,-0.001,1.011,-0.019,-0.434,0.151,-0.200,0.0000000,0.0000000,0.000,0.000,0.000,65.53,00,12.464,0.000,0,131,0,0,0,0,0,0,0,0,0,0,0
388716.35, 11:58:36.35,0,-1.110,-1.238,228.433,-0.992,-1.307,220.926,1,18,-49,-0.017,0.023,-1.013,0.005,0.001,-0.001,1.011,-0.042,-0.416,0.124,-0.100,0.0000000,0.0000000,0.000,0.000,0.000,65.53,00,12.465,0.000,0,131,0,0,0,0,0,0,0,0,0,0,0
388716.56, 11:58:36.56,0,-1.087,-1.203,228.228,-1.169,-1.123,219.646,-30,9,-47,-0.020,0.020,-1.014,-0.001,-0.002,-0.000,1.011,-0.034,-0.380,0.159,-0.849,0.0000000,0.0000000,0.000,0.000,0.000,65.53,00,12.466,0.000,0,131,0,0,0,0,0,0,0,0,0,0,0
388716.76, 11:58:36.76,0,-1.182,-1.266,228.020,-1.244,-1.232,220.276,13,-6,-18,-0.022,0.021,-1.010,-0.001,-0.001,0.000,1.009,-0.031,-0.352,0.250,1.277,0.0000000,0.0000000,0.000,0.000,0.000,65.53,00,12.466,0.000,0,131,0,0,0,0,0,0,0,0,0,0,0
388716.96, 11:58:36.96,0,-1.158,-1.221,227.819,-1.020,-1.249,219.576,30,12,21,-0.018,0.022,-1.011,0.002,0.001,0.003,1.009,-0.004,-0.310,0.201,-0.398,0.0000000,0.0000000,0.000,0.000,0.000,65.53,00,12.464,0.000,0,131,0,0,0,0,0,0,0,0,0,0,0
388717.16, 11:58:37.16,0,-1.216,-1.203,227.625,-1.289,-1.278,220.686,-40,35,-28,-0.022,0.022,-1.010,0.001,0.001,0.003,1.008,0.003,-0.286,0.144,-0.402,0.0000000,0.0000000,0.000,0.000,0.000,65.53,00,12.466,0.000,0,131,0,0,0,0,0,0,0,0,0,0,0
388717.37, 11:58:37.37,0,-1.266,-1.212,227.424,-1.175,-1.278,220.276,19,17,-12,-0.021,0.022,-1.013,0.002,0.000,0.000,1.010,0.013,-0.259,0.200,0.227,0.0000000,0.0000000,0.000,0.000,0.000,65.53,00,12.462,0.000,0,131,0,0,0,0,0,0,0,0,0,0,0
388717.57, 11:58:37.57,0,-1.209,-1.198,227.219,-1.077,-1.295,221.096,5,-59,10,-0.019,0.023,-1.012,0.001,0.003,0.001,1.009,0.020,-0.237,0.153,0.000,0.0000000,0.0000000,0.000,0.000,0.000,65.53,00,12.467,0.000,0,131,0,0,0,0,0,0,0,0,0,0,0
388717.77, 11:58:37.77,0,-1.119,-1.219,227.011,-1.055,-1.118,220.516,2,11,-47,-0.018,0.019,-1.011,-0.002,-0.002,-0.001,1.009,0.017,-0.222,0.143,0.223,0.0000000,0.0000000,0.000,0.000,0.000,65.53,00,12.465,0.000,0,131,0,0,0,0,0,0,0,0,0,0,0
388717.97, 11:58:37.97,0,-1.071,-1.226,226.802,-1.238,-1.266,220.656,-11,-14,0,-0.022,0.022,-1.008,-0.004,0.001,0.004,1.006,0.023,-0.202,0.201,0.560,0.0000000,0.0000000,0.000,0.000,0.000,65.53,00,12.463,0.000,0,131,0,0,0,0,0,0,0,0,0,0,0
388718.19, 11:58:38.19,0,-1.027,-1.234,226.599,-0.734,-1.467,220.886,1,36,9,-0.013,0.026,-1.009,0.004,0.004,0.001,1.007,0.052,-0.172,0.214,0.234,0.0000000,0.0000000,0.000,0.000,0.000,65.53,00,12.463,0.000,0,131,0,0,0,0,0,0,0,0,0,0,0
388718.39, 11:58:38.39,0,-0.910,-1.303,226.389,-0.694,-1.513,219.386,6,8,-6,-0.012,0.026,-1.013,0.001,0.002,-0.002,1.011,0.085,-0.140,0.312,1.227,0.0000000,0.0000000,0.000,0.000,0.000,65.53,00,12.466,0.000,0,131,0,0,0,0,0,0,0,0,0,0,0
388718.59, 11:58:38.59,0,-0.859,-1.291,226.188,-0.894,-1.358,219.846,69,43,33,-0.016,0.024,-1.011,-0.002,0.001,0.001,1.009,0.119,-0.111,0.240,0.005,0.0000000,0.0000000,0.000,0.000,0.000,65.53,00,12.466,0.000,0,131,0,0,0,0,0,0,0,0,0,0,0
388718.79, 11:58:38.79,0,-0.755,-1.333,225.989,-0.613,-1.329,221.156,-5,-19,41,-0.011,0.023,-1.010,-0.001,-0.001,0.002,1.007,0.148,-0.087,0.296,0.555,0.0000000,0.0000000,0.000,0.000,0.000,65.53,00,12.464,0.000,0,131,0,0,0,0,0,0,0,0,0,0,0
388718.99, 11:58:38.99,0,-0.672,-1.307,225.794,-0.350,-1.232,222.746,62,-32,0,-0.006,0.021,-1.013,0.001,-0.002,-0.001,1.011,0.187,-0.059,0.286,-0.504,0.0000000,0.0000000,0.000,0.000,0.000,65.53,00,12.464,0.000,0,131,0,0,0,0,0,0,0,0,0,0,0
388719.2, 11:58:39.20,0,-0.606,-1.307,225.589,-0.533,-1.244,220.276,-2,-36,24,-0.009,0.022,-1.013,0.001,-0.002,-0.000,1.010,0.216,-0.039,0.339,0.734,0.0000000,0.0000000,0.000,0.000,0.000,65.53,00,12.465,0.000,0,131,0,0,0,0,0,0,0,0,0,0,0
388719.4, 11:58:39.40,0,-0.643,-1.323,225.388,-0.791,-1.558,222.276,-32,-13,-1,-0.014,0.027,-1.010,-0.002,0.003,0.002,1.008,0.234,-0.026,0.341,0.981,0.0000000,0.0000000,0.000,0.000,0.000,65.53,00,12.469,0.000,0,131,0,0,0,0,0,0,0,0,0,0,0
388719.6, 11:58:39.60,0,-0.663,-1.284,225.188,-0.791,-1.089,220.586,-28,55,58,-0.014,0.019,-1.012,-0.001,-0.002,0.001,1.009,0.275,-0.003,0.338,-0.687,0.0000000,0.0000000,0.000,0.000,0.000,65.53,00,12.460,0.000,0,131,0,0,0,0,0,0,0,0,0,0,0
388719.81, 11:58:39.81,0,-0.737,-1.269,224.989,-0.843,-1.478,219.946,-22,-46,-27,-0.015,0.026,-1.007,0.000,0.005,0.003,1.006,0.286,0.000,0.312,0.005,0.0000000,0.0000000,0.000,0.000,0.000,65.53,00,12.465,0.000,0,131,0,0,0,0,0,0,0,0,0,0,0
388720.01, 11:58:40.01,0,-0.867,-1.315,224.778,-1.043,-1.518,222.986,-39,47,3,-0.018,0.026,-1.012,-0.000,0.003,-0.002,1.010,0.313,0.015,0.350,-0.361,0.0000000,0.0000000,0.000,0.000,0.000,65.53,00,12.463,0.000,0,131,0,0,0,0,0,0,0,0,0,0,0
388720.21, 11:58:40.21,0,-0.913,-1.316,224.583,-0.992,-1.541,220.316,63,20,-7,-0.017,0.027,-1.008,0.001,0.004,0.001,1.006,0.321,0.018,0.354,0.462,0.0000000,0.0000000,0.000,0.000,0.000,65.53,00,12.464,0.000,0,131,0,0,0,0,0,0,0,0,0,0,0
388720.42, 11:58:40.42,0,-0.872,-1.350,224.381,-0.682,-1.324,221.536,-9,1,-40,-0.012,0.023,-1.009,0.003,-0.001,0.001,1.007,0.341,0.029,0.368,-0.311,0.0000000,0.0000000,0.000,0.000,0.000,65.53,00,12.463,0.000,0,131,0,0,0,0,0,0,0,0,0,0,0
388720.62, 11:58:40.62,0,-0.854,-1.298,224.181,-0.929,-1.232,220.416,-4,21,6,-0.016,0.021,-1.009,-0.001,0.000,0.000,1.007,0.363,0.038,0.336,-0.975,0.0000000,0.0000000,0.000,0.000,0.000,65.53,00,12.466,0.000,0,131,0,0,0,0,0,0,0,0,0,0,0
388720.82, 11:58:40.82,0,-0.829,-1.251,223.986,-0.929,-1.118,219.036,-18,-21,-9,-0.016,0.019,-1.006,-0.002,-0.002,0.002,1.004,0.380,0.044,0.446,0.477,0.0000000,0.0000000,0.000,0.000,0.000,65.53,00,12.463,0.000,0,131,0,0,0,0,0,0,0,0,0,0,0
388721.02, 11:58:41.02,0,-0.778,-1.245,223.783,-0.676,-1.387,219.976,32,30,44,-0.012,0.024,-1.010,-0.001,0.003,-0.001,1.008,0.409,0.058,0.440,0.089,0.0000000,0.0000000,0.000,0.000,0.000,65.53,00,12.463,0.000,0,131,0,0,0,0,0,0,0,0,0,0,0
388721.22, 11:58:41.22,0,-0.746,-1.246,223.580,-0.888,-1.135,221.906,39,12,-14,-0.015,0.020,-1.010,-0.003,-0.001,0.002,1.008,0.456,0.080,0.450,-1.262,0.0000000,0.0000000,0.000,0.000,0.000,65.53,00,12.466,0.000,0,131,0,0,0,0,0,0,0,0,0,0,0
388721.43, 11:58:41.43,0,-0.721,-1.269,223.374,-0.797,-1.370,221.566,-11,29,37,-0.014,0.024,-1.010,-0.001,0.002,-0.000,1.008,0.481,0.085,0.509,-0.208,0.0000000,0.0000000,0.000,0.000,0.000,65.53,00,12.464,0.000,0,131,0,0,0,0,0,0,0,0,0,0,0
388721.63, 11:58:41.63,0,-0.683,-1.315,223.172,-0.631,-1.358,221.766,4,-20,-2,-0.011,0.024,-1.006,-0.001,0.001,0.004,1.005,0.520,0.097,0.572,0.132,0.0000000,0.0000000,0.000,0.000,0.000,65.53,00,12.463,0.000,0,131,0,0,0,0,0,0,0,0,0,0,0
388721.84, 11:58:41.84,0,-0.756,-1.325,222.974,-0.797,-1.421,220.656,6,73,30,-0.014,0.025,-1.011,0.000,0.002,-0.001,1.009,0.537,0.100,0.566,0.744,0.0000000,0.0000000,0.000,0.000,0.000,65.53,00,12.465,0.000,0,131,0,0,0,0,0,0,0,0,0,0,0
388722.04, 11:58:42.04,0,-0.696,-1.352,222.773,-0.751,-1.667,222.176,0,-25,-20,-0.013,0.029,-1.014,-0.003,0.005,-0.004,1.011,0.562,0.106,0.559,0.295,0.0000000,0.0000000,0.000,0.000,0.000,65.53,00,12.465,0.000,0,131,0,0,0,0,0,0,0,0,0,0,0
388722.25, 11:58:42.25,0,-0.805,-1.304,222.568,-0.791,-1.295,220.926,-38,6,-4,-0.014,0.023,-1.012,0.003,0.001,0.000,1.010,0.592,0.116,0.634,0.324,0.0000000,0.0000000,0.000,0.000,0.000,65.53,00,12.465,0.000,0,131,0,0,0,0,0,0,0,0,0,0,0
388722.44, 11:58:42.44,0,-0.908,-1.291,222.358,-0.963,-1.232,222.146,21,-4,-17,-0.017,0.021,-1.011,0.002,-0.000,0.000,1.009,0.607,0.113,0.624,0.757,0.0000000,0.0000000,0.000,0.000,0.000,65.53,00,12.466,0.000,0,131,0,0,0,0,0,0,0,0,0,0,0
388722.66, 11:58:42.66,0,-0.957,-1.270,222.163,-1.043,-1.261,220.616,18,-29,10,-0.018,0.022,-1.010,0.000,0.000,0.001,1.008,0.622,0.112,0.600,0.466,0.0000000,0.0000000,0.000,0.000,0.000,65.53,00,12.465,0.000,0,131,0,0,0,0,0,0,0,0,0,0,0
388722.85, 11:58:42.85,0,-0.883,-1.328,221.958,-0.728,-1.032,221.366,2,19,12,-0.013,0.018,-1.010,0.002,-0.005,0.000,1.008,0.618,0.100,0.552,0.088,0.0000000,0.0000000,0.000,0.000,0.000,65.53,00,12.463,0.000,0,131,0,0,0,0,0,0,0,0,0,0,0
388723.06, 11:58:43.06,0,-0.850,-1.322,221.765,-0.682,-1.266,219.946,44,7,-46,-0.012,0.022,-1.010,0.002,-0.001,0.000,1.008,0.623,0.095,0.607,0.117,0.0000000,0.0000000,0.000,0.000,0.000,65.53,00,12.466,0.000,0,131,0,0,0,0,0,0,0,0,0,0,0
388723.25, 11:58:43.25,0,-0.789,-1.283,221.554,-0.831,-1.249,221.056,18,-56,52,-0.015,0.022,-1.009,-0.003,0.001,0.000,1.007,0.624,0.086,0.568,0.123,0.0000000,0.0000000,0.000,0.000,0.000,65.53,00,12.465,0.000,0,131,0,0,0,0,0,0,0,0,0,0,0
388723.46, 11:58:43.46,0,-0.706,-1.349,221.362,-0.430,-1.352,221.596,-22,21,23,-0.007,0.024,-1.004,0.002,-0.000,0.005,1.002,0.640,0.088,0.660,0.553,0.0000000,0.0000000,0.000,0.000,0.000,65.53,00,12.464,0.000,0,131,0,0,0,0,0,0,0,0,0,0,0
388723.67, 11:58:43.67,0,-0.596,-1.312,221.272,-0.413,-1.518,221.936,44,56,22,-0.007,0.026,-1.010,-0.000,0.004,-0.001,1.008,0.644,0.083,0.681,0.918,0.0000000,0.0000000,0.000,0.000,0.000,65.53,00,12.462,0.000,0,131,0,0,0,0,0,0,0,0,0,0,0
388723.86, 11:58:43.86,0,-0.545,-1.390,221.276,-0.550,-1.244,222.376,41,-36,-4,-0.010,0.022,-1.008,-0.001,-0.003,0.001,1.006,0.667,0.087,0.623,-0.521,0.0000000,0.0000000,0.000,0.000,0.000,65.53,00,12.463,0.000,0,131,0,0,0,0,0,0,0,0,0,0,0
388724.07, 11:58:44.07,0,-0.604,-1.395,221.316,-0.499,-1.289,220.276,20,-48,3,-0.009,0.022,-1.010,0.003,-0.001,-0.001,1.008,0.683,0.089,0.671,-0.240,0.0000000,0.0000000,0.000,0.000,0.000,65.53,00,12.462,0.000,0,131,0,0,0,0,0,0,0,0,0,0,0
388724.27, 11:58:44.27,0,-0.601,-1.312,221.371,-0.860,-1.186,221.666,-10,-18,-13,-0.015,0.021,-1.010,-0.002,-0.002,-0.002,1.008,0.688,0.084,0.714,0.918,0.0000000,0.0000000,0.000,0.000,0.000,65.53,00,12.464,0.000,0,131,0,0,0,0,0,0,0,0,0,0,0
388724.48, 11:58:44.48,0,-0.642,-1.274,221.370,-0.762,-1.261,220.176,26,7,-2,-0.013,0.022,-1.005,-0.002,0.000,0.002,1.004,0.710,0.087,0.698,-0.017,0.0000000,0.0000000,0.000,0.000,0.000,65.53,00,12.466,0.000,0,131,0,0,0,0,0,0,0,0,0,0,0
388724.67, 11:58:44.67,0,-0.700,-1.305,221.372,-1.072,-1.438,221.096,-2,18,9,-0.019,0.025,-1.013,-0.004,0.002,-0.003,1.010,0.720,0.089,0.709,0.098,0.0000000,0.0000000,0.000,0.000,0.000,65.53,00,12.466,0.000,0,131,0,0,0,0,0,0,0,0,0,0,0
388724.89, 11:58:44.89,0,-0.808,-1.345,221.319,-1.123,-1.450,219.976,-52,-28,2,-0.020,0.025,-1.012,0.000,0.001,-0.002,1.010,0.735,0.089,0.683,-0.826,0.0000000,0.0000000,0.000,0.000,0.000,65.53,00,12.464,0.000,0,131,0,0,0,0,0,0,0,0,0,0,0
388725.09, 11:58:45.09,0,-0.887,-1.338,221.269,-0.963,-1.278,220.556,6,-48,-17,-0.017,0.022,-1.011,0.002,-0.001,0.000,1.009,0.722,0.076,0.717,1.065,0.0000000,0.0000000,0.000,0.000,0.000,65.53,00,12.461,0.000,0,131,0,0,0,0,0,0,0,0,0,0,0
388725.3, 11:58:45.30,0,-0.922,-1.255,221.174,-1.077,-1.186,219.906,22,-40,8,-0.019,0.021,-1.011,-0.001,-0.000,0.000,1.009,0.723,0.070,0.651,-0.187,0.0000000,0.0000000,0.000,0.000,0.000,65.53,00,12.465,0.000,0,131,0,0,0,0,0,0,0,0,0,0,0
388725.49, 11:58:45.49,0,-1.001,-1.262,221.123,-0.992,-1.261,221.096,13,-4,-17,-0.017,0.022,-1.011,0.002,0.001,-0.001,1.009,0.731,0.067,0.701,-0.377,0.0000000,0.0000000,0.000,0.000,0.000,65.53,00,12.461,0.000,0,131,0,0,0,0,0,0,0,0,0,0,0
388725.7, 11:58:45.70,0,-1.020,-1.206,221.007,-1.009,-1.467,220.616,29,30,42,-0.018,0.026,-1.011,0.001,0.004,-0.001,1.009,0.729,0.060,0.753,0.720,0.0000000,0.0000000,0.000,0.000,0.000,65.53,00,12.461,0.000,0,131,0,0,0,0,0,0,0,0,0,0,0
388725.9, 11:58:45.90,0,-0.968,-1.247,220.937,-0.877,-1.358,221.666,36,-8,14,-0.015,0.024,-1.010,0.001,0.001,0.001,1.008,0.737,0.058,0.725,0.389,0.0000000,0.0000000,0.000,0.000,0.000,65.53,00,12.461,0.000,0,131,0,0,0,0,0,0,0,0,0,0,0
388726.1, 11:58:46.10,0,-0.911,-1.275,220.937,-0.791,-0.963,220.416,-37,-11,-16,-0.014,0.017,-1.008,0.001,-0.005,0.002,1.007,0.768,0.068,0.828,0.077,0.0000000,0.0000000,0.000,0.000,0.000,65.53,00,12.462,0.000,0,131,0,0,0,0,0,0,0,0,0,0,0
388726.3, 11:58:46.30,0,-0.860,-1.310,220.939,-0.774,-1.352,220.956,-20,4,-10,-0.013,0.024,-1.013,0.001,0.000,-0.001,1.010,0.800,0.080,0.838,0.174,0.0000000,0.0000000,0.000,0.000,0.000,65.53,00,12.458,0.000,0,131,0,0,0,0,0,0,0,0,0,0,0
388726.51, 11:58:46.51,0,-0.764,-1.347,220.942,-0.717,-1.135,221.566,84,-39,46,-0.013,0.020,-1.013,-0.001,-0.004,-0.001,1.010,0.825,0.084,0.893,0.903,0.0000000,0.0000000,0.000,0.000,0.000,65.53,00,12.463,0.000,0,131,0,0,0,0,0,0,0,0,0,0,0
388726.72, 11:58:46.72,0,-0.738,-1.371,220.939,-0.619,-1.530,221.666,-31,-9,5,-0.011,0.027,-1.011,0.001,0.002,0.001,1.009,0.876,0.103,0.907,-0.578,0.0000000,0.0000000,0.000,0.000,0.000,65.53,00,12.460,0.000,0,131,0,0,0,0,0,0,0,0,0,0,0
388726.92, 11:58:46.92,0,-0.789,-1.330,220.995,-1.112,-1.329,220.006,61,-14,28,-0.019,0.023,-1.011,-0.005,0.000,0.001,1.009,0.887,0.099,0.887,0.905,0.0000000,0.0000000,0.000,0.000,0.000,65.53,00,12.463,0.000,0,131,0,0,0,0,0,0,0,0,0,0,0
388727.11, 11:58:47.11,0,-0.800,-1.326,220.990,-0.825,-1.352,222.446,-14,-28,9,-0.014,0.024,-1.014,-0.000,0.000,-0.003,1.012,0.907,0.101,0.894,-0.196,0.0000000,0.0000000,0.000,0.000,0.000,65.53,00,12.461,0.000,0,131,0,0,0,0,0,0,0,0,0,0,0
388727.32, 11:58:47.32,0,-0.805,-1.328,220.991,-0.797,-1.072,221.806,-26,-12,47,-0.014,0.019,-1.010,0.000,-0.005,0.001,1.008,0.931,0.103,0.925,-0.023,0.0000000,0.0000000,0.000,0.000,0.000,65.53,00,12.460,0.000,0,131,0,0,0,0,0,0,0,0,0,0,0
388727.52, 11:58:47.52,0,-0.907,-1.324,220.989,-0.866,-1.329,220.316,35,28,-15,-0.015,0.023,-1.012,0.002,0.000,0.000,1.009,0.940,0.099,0.903,-0.093,0.0000000,0.0000000,0.000,0.000,0.000,65.53,00,12.463,0.000,0,131,0,0,0,0,0,0,0,0,0,0,0
388727.72, 11:58:47.72,0,-0.919,-1.351,220.989,-0.866,-1.289,219.906,18,-21,-33,-0.015,0.022,-1.011,0.001,-0.001,0.000,1.009,0.957,0.099,0.903,-0.571,0.0000000,0.0000000,0.000,0.000,0.000,65.53,00,12.464,0.000,0,131,0,0,0,0,0,0,0,0,0,0,0
388727.94, 11:58:47.94,0,-0.915,-1.279,220.992,-0.980,-1.203,220.756,-10,-5,54,-0.017,0.021,-1.014,-0.001,0.000,-0.002,1.011,0.946,0.085,0.890,0.027,0.0000000,0.0000000,0.000,0.000,0.000,65.53,00,12.462,0.000,0,131,0,0,0,0,0,0,0,0,0,0,0
388728.13, 11:58:48.13,0,-0.957,-1.319,220.929,-1.037,-1.261,220.856,-16,-14,-56,-0.018,0.022,-1.012,-0.001,-0.002,-0.001,1.009,0.946,0.076,0.882,-0.170,0.0000000,0.0000000,0.000,0.000,0.000,65.53,00,12.461,0.000,0,131,0,0,0,0,0,0,0,0,0,0,0
388728.34, 11:58:48.34,0,-0.896,-1.257,220.859,-0.659,-1.433,220.486,-25,12,-8,-0.011,0.025,-1.007,0.002,0.004,0.002,1.006,0.945,0.066,0.949,0.745,0.0000000,0.0000000,0.000,0.000,0.000,65.53,00,12.461,0.000,0,131,0,0,0,0,0,0,0,0,0,0,0
388728.53, 11:58:48.53,0,-0.885,-1.310,220.853,-0.963,-1.421,220.486,18,-2,-41,-0.017,0.025,-1.013,-0.002,0.002,-0.002,1.011,0.953,0.066,0.891,-0.626,0.0000000,0.0000000,0.000,0.000,0.000,65.53,00,12.464,0.000,0,131,0,0,0,0,0,0,0,0,0,0,0
388728.74, 11:58:48.74,0,-0.800,-1.342,220.856,-0.711,-1.421,218.846,18,-14,30,-0.012,0.025,-1.010,0.001,0.001,0.001,1.008,0.948,0.056,0.937,0.474,0.0000000,0.0000000,0.000,0.000,0.000,65.53,00,12.464,0.000,0,131,0,0,0,0,0,0,0,0,0,0,0
388728.94, 11:58:48.94,0,-0.723,-1.347,220.784,-0.957,-1.352,222.146,-1,11,-36,-0.017,0.024,-1.013,-0.005,0.000,-0.002,1.011,0.955,0.054,0.975,0.499,0.0000000,0.0000000,0.000,0.000,0.000,65.53,00,12.458,0.000,0,131,0,0,0,0,0,0,0,0,0,0,0
388729.15, 11:58:49.15,0,-0.659,-1.380,220.784,-0.562,-1.249,220.216,-13,-7,25,-0.010,0.022,-1.012,0.000,-0.002,-0.001,1.009,0.957,0.049,0.927,-0.015,0.0000000,0.0000000,0.000,0.000,0.000,65.53,00,12.457,0.000,0,131,0,0,0,0,0,0,0,0,0,0,0
388729.35, 11:58:49.35,0,-0.599,-1.441,220.788,-0.384,-1.387,221.426,-11,-5,45,-0.007,0.024,-1.013,0.003,-0.002,-0.001,1.010,0.966,0.047,0.958,-0.314,0.0000000,0.0000000,0.000,0.000,0.000,65.53,00,12.464,0.000,0,131,0,0,0,0,0,0,0,0,0,0,0
388729.56, 11:58:49.56,0,-0.571,-1.415,220.864,-0.413,-1.370,222.076,16,4,-5,-0.007,0.024,-1.011,0.002,-0.001,-0.000,1.009,0.975,0.047,0.946,-0.284,0.0000000,0.0000000,0.000,0.000,0.000,65.53,00,12.460,0.000,0,131,0,0,0,0,0,0,0,0,0,0,0
388729.76, 11:58:49.76,0,-0.588,-1.433,221.018,-0.567,-1.656,222.476,69,-8,69,-0.010,0.029,-1.009,0.000,0.003,0.000,1.007,0.990,0.049,1.063,0.637,0.0000000,0.0000000,0.000,0.000,0.000,65.53,00,12.464,0.000,0,131,0,0,0,0,0,0,0,0,0,0,0
388729.96, 11:58:49.96,0,-0.543,-1.448,221.218,-0.372,-1.438,221.596,22,6,-34,-0.006,0.025,-1.009,0.003,-0.000,0.001,1.007,1.019,0.059,1.020,-0.494,0.0000000,0.0000000,0.000,0.000,0.000,65.53,00,12.457,0.000,0,131,0,0,0,0,0,0,0,0,0,0,0
388730.17, 11:58:50.17,0,-0.480,-1.430,221.370,-0.372,-1.438,220.786,16,12,12,-0.006,0.025,-1.011,0.001,0.000,-0.002,1.009,1.027,0.058,0.988,-0.248,0.0000000,0.0000000,0.000,0.000,0.000,65.53,00,12.462,0.000,0,131,0,0,0,0,0,0,0,0,0,0,0
388730.37, 11:58:50.37,0,-0.433,-1.432,221.412,-0.418,-1.685,221.736,18,-46,-13,-0.007,0.029,-1.007,-0.000,0.004,0.002,1.005,1.047,0.062,1.141,0.982,0.0000000,0.0000000,0.000,0.000,0.000,65.53,00,12.461,0.000,0,131,0,0,0,0,0,0,0,0,0,0,0
388730.58, 11:58:50.58,0,-0.382,-1.508,221.472,-0.418,-1.673,222.076,22,5,-3,-0.007,0.029,-1.009,-0.002,0.000,0.000,1.007,1.067,0.065,1.120,0.948,0.0000000,0.0000000,0.000,0.000,0.000,65.53,00,12.460,0.000,0,131,0,0,0,0,0,0,0,0,0,0,0
388730.78, 11:58:50.78,0,-0.441,-1.546,221.516,-0.613,-1.501,221.426,-11,-2,59,-0.011,0.026,-1.007,-0.002,-0.002,0.003,1.005,1.071,0.061,1.035,0.203,0.0000000,0.0000000,0.000,0.000,0.000,65.53,00,12.459,0.000,0,131,0,0,0,0,0,0,0,0,0,0,0
388730.97, 11:58:50.97,0,-0.449,-1.488,221.519,-0.562,-1.421,222.176,35,-4,-34,-0.010,0.025,-1.007,-0.001,-0.000,0.002,1.005,1.084,0.061,1.100,-0.072,0.0000000,0.0000000,0.000,0.000,0.000,65.53,00,12.460,0.000,0,131,0,0,0,0,0,0,0,0,0,0,0
388731.17, 11:58:51.17,0,-0.412,-1.539,221.522,-0.355,-1.748,221.426,-20,22,11,-0.006,0.030,-1.008,0.001,0.002,-0.001,1.007,1.106,0.066,1.164,0.581,0.0000000,0.0000000,0.000,0.000,0.000,65.53,00,12.461,0.000,0,131,0,0,0,0,0,0,0,0,0,0,0
388731.38, 11:58:51.38,0,-0.342,-1.556,221.523,-0.109,-1.421,221.596,-5,-1,-32,-0.002,0.025,-1.010,0.003,-0.003,0.000,1.008,1.129,0.072,1.141,0.151,51.7120299,-0.2102568,148.531,-0.030,-0.010,6.81,23808,12.457,0.000,0,131,0,0,0,0,0,0,0,0,0,0,0
388731.61, 11:58:51.61,0,-0.342,-1.488,221.523,-0.321,-1.513,222.346,-15,28,-13,-0.006,0.026,-1.009,-0.000,0.002,0.000,1.007,1.150,0.075,1.124,-0.485,51.7120293,-0.2102569,148.578,0.000,-0.010,4.95,23808,12.463,0.000,0,131,0,0,0,0,0,0,0,0,0,0,0
388731.79, 11:58:51.79,0,-0.417,-1.439,221.614,-0.734,-1.404,221.666,-19,-60,-2,-0.013,0.025,-1.011,-0.003,0.000,-0.003,1.009,1.157,0.071,1.126,-0.245,51.7120288,-0.2102572,148.630,0.020,-0.010,4.89,23808,12.461,0.000,0,131,0,0,0,0,0,0,0,0,0,0,0
388732.0, 11:58:52.00,0,-0.474,-1.434,221.688,-0.562,-1.244,221.536,17,-19,5,-0.010,0.022,-1.009,-0.001,-0.003,0.001,1.007,1.158,0.067,1.095,-0.580,51.7120280,-0.2102571,148.627,-0.010,0.030,4.21,23808,12.456,0.000,0,131,0,0,0,0,0,0,0,0,0,0,0
388732.18, 11:58:52.18,0,-0.453,-1.466,221.743,-0.338,-1.370,222.586,-55,-13,-30,-0.006,0.024,-1.009,0.002,-0.002,0.002,1.007,1.155,0.059,1.123,0.118,51.7120274,-0.2102570,148.614,-0.010,0.000,3.76,23808,12.460,0.000,0,131,0,0,0,0,0,0,0,0,0,0,0
388732.81, 11:58:52.81,0,-0.518,-1.415,221.785,-0.545,-1.415,217.327,16,-21,0,-0.009,0.025,-1.011,0.001,0.000,-0.001,1.009,1.155,0.052,1.135,0.061,51.7120267,-0.2102572,148.640,0.000,0.030,3.43,23811,12.462,0.000,0,131,0,0,0,0,0,0,0,0,0,0,0
388733.01, 11:58:53.01,0,-0.696,-1.340,221.171,-0.717,-1.352,218.037,10,32,-30,-0.013,0.024,-1.010,0.000,0.001,-0.000,1.008,1.163,0.041,1.099,-1.006,51.7120249,-0.2102572,148.783,-0.010,0.020,2.79,23811,12.452,0.000,0,131,0,0,0,0,0,0,0,0,0,0,0
388733.21, 11:58:53.21,0,-0.772,-1.364,220.959,-0.734,-1.341,217.427,-48,-12,22,-0.013,0.023,-1.012,0.001,-0.000,-0.001,1.009,1.143,0.025,1.087,-0.080,51.7120243,-0.2102570,148.811,-0.010,0.000,2.52,23811,12.458,0.000,0,131,0,0,0,0,0,0,0,0,0,0,0
388733.41, 11:58:53.41,0,-0.736,-1.368,220.764,-0.676,-1.513,217.797,45,-13,-48,-0.012,0.026,-1.006,0.001,0.003,0.004,1.005,1.146,0.022,1.154,-0.023,51.7120243,-0.2102570,148.811,-0.010,0.000,2.52,23811,12.460,0.000,0,131,0,0,0,0,0,0,0,0,0,0,0
388733.62, 11:58:53.62,0,-0.619,-1.353,220.560,0.023,-1.324,217.017,-8,32,34,0.000,0.023,-1.005,0.009,-0.000,0.002,1.004,1.172,0.030,1.212,-0.274,51.7120240,-0.2102568,148.827,0.000,0.020,2.32,-8957,12.454,0.000,0,131,0,0,0,0,0,0,0,0,0,0,0
388733.84, 11:58:53.84,0,-0.499,-1.404,220.351,-0.355,-1.541,218.947,4,-18,-13,-0.006,0.027,-1.006,-0.001,0.000,0.002,1.004,1.194,0.038,1.235,0.173,51.7120240,-0.2102568,148.827,0.000,0.020,2.32,-8957,12.458,0.000,0,131,0,0,0,0,0,0,0,0,0,0,0
388734.03, 11:58:54.03,0,-0.372,-1.515,220.148,-0.091,-1.404,217.937,22,-45,29,-0.002,0.025,-1.009,0.001,-0.005,0.000,1.007,1.204,0.040,1.231,0.495,51.7120232,-0.2102566,148.872,-0.010,0.020,2.17,-8957,12.452,0.000,0,131,0,0,0,0,0,0,0,0,0,0,0
388734.23, 11:58:54.23,0,-0.263,-1.551,219.948,0.000,-1.484,219.457,-25,-23,64,0.000,0.026,-1.009,-0.000,-0.002,-0.000,1.007,1.221,0.044,1.251,0.207,51.7120232,-0.2102566,148.872,-0.010,0.020,2.17,-8957,12.460,0.000,0,131,0,0,0,0,0,0,0,0,0,0,0
388734.43, 11:58:54.43,0,-0.167,-1.631,219.759,-0.241,-1.667,218.817,27,17,6,-0.004,0.029,-1.005,-0.005,-0.000,0.003,1.004,1.249,0.053,1.318,0.298,51.7120225,-0.2102564,148.894,0.000,-0.020,2.04,-8957,12.452,0.000,0,131,0,0,0,0,0,0,0,0,0,0,0
388734.64, 11:58:54.64,0,-0.118,-1.577,219.558,-0.149,-1.478,219.257,-46,-37,78,-0.003,0.026,-1.006,-0.002,-0.001,0.000,1.004,1.275,0.059,1.351,0.858,51.7120225,-0.2102564,148.894,0.000,-0.020,2.04,-8957,12.448,0.000,0,131,0,0,0,0,0,0,0,0,0,0,0
388734.84, 11:58:54.84,0,-0.052,-1.607,219.347,0.258,-1.610,220.947,15,-23,-27,0.004,0.028,-1.008,0.005,-0.001,-0.001,1.007,1.281,0.057,1.316,1.109,51.7120217,-0.2102561,148.911,0.000,0.010,1.93,-8957,12.450,0.000,0,131,0,0,0,0,0,0,0,0,0,0,0
388735.05, 11:58:55.05,0,0.042,-1.629,219.159,0.080,-1.645,220.477,19,-37,-7,0.001,0.029,-1.003,-0.000,-0.000,0.004,1.002,1.297,0.058,1.302,0.314,51.7120217,-0.2102561,148.911,0.000,0.010,1.93,-8957,12.464,0.000,0,131,0,0,0,0,0,0,0,0,0,0,0
388735.24, 11:58:55.24,0,0.046,-1.629,219.127,0.212,-1.547,218.917,4,33,38,0.004,0.027,-1.005,0.003,-0.001,0.001,1.004,1.307,0.056,1.335,0.433,51.7120213,-0.2102564,148.921,-0.010,0.040,1.84,-8957,12.456,0.000,0,131,0,0,0,0,0,0,0,0,0,0,0
388735.44, 11:58:55.44,0,0.109,-1.587,219.134,-0.235,-1.421,218.337,17,-8,-8,-0.004,0.025,-1.007,-0.006,-0.001,-0.001,1.006,1.320,0.058,1.370,0.677,51.7120213,-0.2102564,148.921,-0.010,0.040,1.84,-8957,12.451,0.000,0,131,0,0,0,0,0,0,0,0,0,0,0
388735.65, 11:58:55.65,0,0.037,-1.561,219.042,0.000,-1.604,218.307,-26,-12,-5,0.000,0.028,-1.009,0.000,0.001,-0.002,1.007,1.339,0.062,1.317,-0.311,51.7120210,-0.2102565,148.916,-0.010,0.000,1.77,-8957,12.451,0.000,0,131,0,0,0,0,0,0,0,0,0,0,0
388735.85, 11:58:55.85,0,0.015,-1.627,218.938,-0.017,-1.782,219.427,37,-11,-66,-0.000,0.031,-1.005,-0.000,0.002,0.001,1.004,1.346,0.059,1.302,-0.421,51.7120210,-0.2102565,148.916,-0.010,0.000,1.73,-8957,12.453,0.000,0,131,0,0,0,0,0,0,0,0,0,0,0
388736.05, 11:58:56.05,0,-0.062,-1.663,218.939,-0.218,-1.513,219.487,36,31,10,-0.004,0.026,-1.008,-0.002,-0.003,-0.000,1.007,1.347,0.056,1.322,-0.203,51.7120209,-0.2102566,148.900,0.000,0.000,1.70,-8957,12.450,0.000,0,131,0,0,0,0,0,0,0,0,0,0,0
388736.25, 11:58:56.25,0,-0.078,-1.633,219.016,-0.304,-1.690,218.947,-2,19,-55,-0.005,0.029,-1.007,-0.004,0.001,0.002,1.006,1.359,0.057,1.342,-0.348,51.7120209,-0.2102567,148.911,-0.020,0.020,1.67,-8957,12.452,0.000,0,131,0,0,0,0,0,0,0,0,0,0,0
388736.46, 11:58:56.46,0,-0.060,-1.698,219.026,-0.109,-1.690,218.947,1,21,50,-0.002,0.029,-1.007,-0.001,-0.000,-0.000,1.006,1.366,0.053,1.364,0.149,51.7120209,-0.2102568,148.914,-0.020,0.030,1.64,-8957,12.450,0.000,0,131,0,0,0,0,0,0,0,0,0,0,0
388736.66, 11:58:56.66,0,-0.053,-1.675,219.112,-0.137,-1.604,219.427,4,57,59,-0.002,0.028,-1.007,-0.001,-0.000,0.001,1.006,1.384,0.057,1.393,-0.091,51.7120209,-0.2102568,148.914,-0.020,0.030,1.64,-8957,12.452,0.000,0,131,0,0,0,0,0,0,0,0,0,0,0
388736.88, 11:58:56.88,0,-0.073,-1.662,219.133,-0.069,-1.639,217.867,-92,-35,91,-0.001,0.029,-1.010,0.000,-0.000,-0.003,1.008,1.397,0.058,1.428,0.599,51.7120207,-0.2102570,148.908,-0.020,0.010,1.58,-8957,12.450,0.000,0,131,0,0,0,0,0,0,0,0,0,0,0
388737.07, 11:58:57.07,0,-0.031,-1.616,219.136,0.109,-1.541,218.407,-9,-38,-66,0.002,0.027,-1.009,0.002,-0.001,0.001,1.007,1.402,0.057,1.397,0.572,51.7120207,-0.2102572,148.891,-0.020,0.020,1.56,-8957,12.450,0.000,0,131,0,0,0,0,0,0,0,0,0,0,0
388737.27, 11:58:57.27,0,-0.078,-1.586,219.099,-0.103,-1.753,218.777,-4,-47,36,-0.002,0.031,-1.008,-0.000,0.004,-0.000,1.006,1.414,0.056,1.520,1.248,51.7120208,-0.2102574,148.885,-0.020,0.040,1.53,-8957,12.452,0.000,0,131,0,0,0,0,0,0,0,0,0,0,0
388737.48, 11:58:57.48,0,-0.117,-1.539,219.066,0.023,-1.667,218.717,16,-17,32,0.000,0.029,-1.012,0.003,0.003,-0.003,1.010,1.435,0.063,1.355,-0.823,51.7120209,-0.2102574,148.874,-0.010,0.030,1.51,-8957,12.449,0.000,0,131,0,0,0,0,0,0,0,0,0,0,0
388737.68, 11:58:57.68,0,-0.038,-1.583,219.066,-0.137,-1.593,219.757,-5,-18,32,-0.002,0.028,-1.012,-0.002,-0.000,-0.002,1.010,1.430,0.056,1.467,0.822,51.7120209,-0.2102575,148.858,-0.020,0.030,1.49,-8957,12.450,0.000,0,131,0,0,0,0,0,0,0,0,0,0,0
388737.89, 11:58:57.89,0,-0.003,-1.662,219.068,-0.040,-1.627,219.967,4,-8,-14,-0.001,0.028,-1.008,-0.001,-0.001,0.002,1.007,1.450,0.060,1.441,-0.227,51.7120208,-0.2102576,148.849,-0.030,0.000,1.47,-8957,12.452,0.000,0,131,0,0,0,0,0,0,0,0,0,0,0
388738.08, 11:58:58.08,0,0.066,-1.567,219.178,0.155,-1.581,219.287,-46,-25,-10,0.003,0.028,-1.008,0.001,0.002,0.000,1.006,1.466,0.060,1.494,0.477,51.7120208,-0.2102577,148.850,-0.010,0.060,1.45,-8957,12.451,0.000,0,131,0,0,0,0,0,0,0,0,0,0,0
388738.29, 11:58:58.29,0,0.030,-1.590,219.176,0.057,-1.731,218.237,-13,24,48,0.001,0.030,-1.006,0.000,0.003,0.001,1.004,1.473,0.057,1.404,-0.803,51.7120207,-0.2102577,148.829,-0.030,0.010,1.43,-8957,12.449,0.000,0,131,0,0,0,0,0,0,0,0,0,0,0
388738.5, 11:58:58.50,0,0.111,-1.636,219.139,0.046,-1.771,219.557,4,-33,-58,0.001,0.031,-1.006,-0.001,0.002,0.000,1.005,1.485,0.056,1.467,-0.464,51.7120206,-0.2102576,148.825,0.020,-0.010,1.41,-8957,12.450,0.000,0,131,0,0,0,0,0,0,0,0,0,0,0
388738.69, 11:58:58.69,0,0.206,-1.640,219.137,0.195,-1.771,219.257,-8,29,14,0.003,0.031,-1.004,-0.003,0.002,0.002,1.003,1.491,0.054,1.459,-0.285,51.7120206,-0.2102576,148.810,0.000,0.000,1.40,-8957,12.452,0.000,0,131,0,0,0,0,0,0,0,0,0,0,0
388738.89, 11:58:58.89,0,0.300,-1.720,219.138,0.378,-1.983,219.927,22,-33,27,0.007,0.035,-1.010,0.001,0.003,-0.004,1.008,1.504,0.057,1.528,0.294,51.7120205,-0.2102576,148.789,-0.020,0.000,1.38,-8957,12.448,0.000,0,131,0,0,0,0,0,0,0,0,0,0,0
388739.1, 11:58:59.10,0,0.260,-1.737,219.137,0.493,-1.656,219.997,0,37,-27,0.009,0.029,-1.010,0.004,-0.001,-0.001,1.008,1.516,0.058,1.485,-0.290,51.7120205,-0.2102575,148.775,0.010,0.010,1.36,-8957,12.448,0.000,0,131,0,0,0,0,0,0,0,0,0,0,0
388739.31, 11:58:59.31,0,0.322,-1.784,219.216,0.556,-1.753,220.097,71,-10,20,0.010,0.031,-1.004,0.003,-0.001,0.003,1.003,1.508,0.047,1.419,-0.509,51.7120205,-0.2102575,148.754,-0.010,0.000,1.35,-8957,12.448,0.000,0,131,0,0,0,0,0,0,0,0,0,0,0
388739.51, 11:58:59.51,0,0.339,-1.783,219.420,0.550,-1.794,219.557,0,26,72,0.010,0.031,-1.006,0.003,0.000,0.002,1.004,1.487,0.031,1.400,-0.218,51.7120205,-0.2102574,148.748,0.000,0.010,1.34,-8957,12.451,0.000,0,131,0,0,0,0,0,0,0,0,0,0,0
388739.7, 11:58:59.70,0,0.412,-1.809,219.425,0.195,-1.908,219.867,32,22,15,0.003,0.033,-1.004,-0.005,0.000,0.002,1.003,1.460,0.013,1.405,0.124,51.7120206,-0.2102573,148.734,0.020,0.010,1.32,-8957,12.449,0.000,0,131,0,0,0,0,0,0,0,0,0,0,0
388739.92, 11:58:59.92,0,0.417,-1.883,219.544,0.355,-1.891,219.357,37,-22,0,0.006,0.033,-1.008,-0.002,-0.001,-0.002,1.006,1.445,0.002,1.426,0.275,51.7120206,-0.2102572,148.722,0.000,-0.030,1.31,-8957,12.449,0.000,0,131,0,0,0,0,0,0,0,0,0,0,0
388740.12, 11:59:00.12,0,0.376,-1.909,219.585,0.493,-1.748,219.967,28,21,21,0.009,0.030,-1.006,0.002,-0.004,0.000,1.005,1.438,0.000,1.407,-0.214,51.7120206,-0.2102571,148.697,-0.010,0.040,1.30,-8957,12.451,0.000,0,131,0,0,0,0,0,0,0,0,0,0,0
388740.32, 11:59:00.32,0,0.335,-1.854,219.633,0.344,-1.971,219.757,-10,-10,7,0.006,0.034,-1.005,0.000,0.003,0.002,1.004,1.421,-0.011,1.427,0.448,51.7120206,-0.2102570,148.683,-0.010,0.020,1.28,-8957,12.451,0.000,0,131,0,0,0,0,0,0,0,0,0,0,0
388740.52, 11:59:00.52,0,0.387,-1.837,219.673,0.401,-2.029,220.237,49,-9,-28,0.007,0.035,-1.008,-0.000,0.003,-0.001,1.006,1.414,-0.015,1.365,-0.426,51.7120205,-0.2102569,148.664,-0.010,0.000,1.27,-8957,12.451,0.000,0,131,0,0,0,0,0,0,0,0,0,0,0
388740.75, 11:59:00.75,0,0.435,-1.822,219.693,0.418,-1.639,219.387,38,21,57,0.007,0.029,-1.004,-0.001,-0.003,0.001,1.003,1.406,-0.020,1.463,0.676,51.7120206,-0.2102568,148.630,0.000,0.030,1.26,-8957,12.449,0.000,0,131,0,0,0,0,0,0,0,0,0,0,0
388740.93, 11:59:00.93,0,0.459,-1.842,219.693,0.487,-1.857,219.897,43,12,8,0.009,0.032,-1.005,0.000,0.000,0.001,1.004,1.421,-0.012,1.455,0.110,51.7120207,-0.2102567,148.600,-0.010,0.040,1.25,-8957,12.449,0.000,0,131,0,0,0,0,0,0,0,0,0,0,0
388741.13, 11:59:01.13,0,0.463,-1.855,219.688,0.516,-1.908,219.387,-2,19,65,0.009,0.033,-1.005,0.001,0.001,0.000,1.004,1.432,-0.006,1.469,-0.031,51.7120209,-0.2102568,148.556,-0.030,0.030,1.24,-8957,12.448,0.000,0,131,0,0,0,0,0,0,0,0,0,0,0
388741.33, 11:59:01.33,0,0.391,-1.855,219.689,0.000,-1.971,220.267,-80,-5,8,0.000,0.034,-1.005,-0.005,0.002,0.001,1.004,1.454,0.002,1.491,-0.198,51.7120210,-0.2102567,148.519,-0.010,0.030,1.23,-8957,12.449,0.000,0,131,0,0,0,0,0,0,0,0,0,0,0
388741.54, 11:59:01.54,0,0.296,-1.844,219.797,0.378,-1.794,220.197,-45,24,-16,0.007,0.031,-1.005,0.004,-0.001,0.001,1.004,1.463,0.006,1.519,0.513,51.7120211,-0.2102567,148.492,-0.030,0.050,1.22,-8957,12.450,0.000,0,131,0,0,0,0,0,0,0,0,0,0,0
388741.75, 11:59:01.75,0,0.265,-1.814,219.802,-0.023,-1.771,219.597,-40,-23,8,-0.000,0.031,-1.007,-0.003,-0.000,-0.001,1.006,1.493,0.020,1.524,-0.326,51.7120213,-0.2102567,148.459,-0.010,0.040,1.21,-8957,12.448,0.000,0,131,0,0,0,0,0,0,0,0,0,0,0
388741.94, 11:59:01.94,0,0.195,-1.784,219.803,0.212,-1.748,219.657,-1,15,-29,0.004,0.030,-1.008,0.003,0.001,-0.000,1.006,1.506,0.025,1.487,-0.411,51.7120213,-0.2102566,148.427,0.010,-0.010,1.20,-8957,12.451,0.000,0,131,0,0,0,0,0,0,0,0,0,0,0
388742.14, 11:59:02.14,0,0.198,-1.813,219.796,0.155,-1.610,220.367,-30,-1,-3,0.003,0.028,-1.006,0.002,-0.005,0.001,1.005,1.516,0.028,1.515,-0.276,51.7120214,-0.2102567,148.411,-0.030,0.030,1.19,-8957,12.448,0.000,0,131,0,0,0,0,0,0,0,0,0,0,0
388742.35, 11:59:02.35,0,0.199,-1.843,219.796,0.269,-1.920,219.427,-2,68,47,0.005,0.034,-1.008,0.002,0.000,-0.002,1.007,1.519,0.025,1.535,-0.018,51.7120215,-0.2102567,148.383,-0.020,0.020,1.18,-8957,12.447,0.000,0,131,0,0,0,0,0,0,0,0,0,0,0
388742.56, 11:59:02.56,0,0.219,-1.854,219.799,0.286,-1.971,219.697,10,6,-2,0.005,0.034,-1.008,0.000,0.002,-0.001,1.006,1.542,0.036,1.582,-0.029,51.7120216,-0.2102567,148.362,0.000,0.010,1.18,-8957,12.451,0.000,0,131,0,0,0,0,0,0,0,0,0,0,0
388742.74, 11:59:02.74,0,0.201,-1.837,219.796,0.229,-1.645,220.137,-13,23,-8,0.004,0.029,-1.006,0.001,-0.003,0.000,1.005,1.555,0.038,1.548,-0.139,51.7120217,-0.2102567,148.340,-0.010,0.000,1.17,-8957,12.448,0.000,0,131,0,0,0,0,0,0,0,0,0,0,0
388742.96, 11:59:02.96,0,0.198,-1.801,219.797,0.080,-1.874,219.387,-55,-40,27,0.001,0.033,-1.008,0.000,0.001,-0.000,1.007,1.554,0.034,1.545,0.215,51.7120218,-0.2102566,148.316,0.010,-0.020,1.16,-8957,12.449,0.000,0,131,0,0,0,0,0,0,0,0,0,0,0
388743.17, 11:59:03.17,0,0.102,-1.845,219.710,0.195,-1.834,218.847,-6,1,14,0.003,0.032,-1.006,0.003,-0.001,0.001,1.004,1.558,0.032,1.547,0.068,51.7120219,-0.2102566,148.295,-0.010,0.010,1.15,-8957,12.448,0.000,0,131,0,0,0,0,0,0,0,0,0,0,0
388743.37, 11:59:03.37,0,0.121,-1.773,219.659,0.143,-1.564,218.207,17,10,25,0.003,0.027,-1.010,0.001,-0.002,-0.001,1.008,1.554,0.027,1.520,-0.174,51.7120220,-0.2102566,148.275,-0.010,0.010,1.14,-8957,12.448,0.000,0,131,0,0,0,0,0,0,0,0,0,0,0
388743.57, 11:59:03.57,0,0.096,-1.753,219.594,0.075,-1.811,218.547,-38,-17,-20,0.001,0.032,-1.007,-0.000,0.001,-0.001,1.006,1.560,0.026,1.551,-0.426,51.7120221,-0.2102566,148.250,0.000,0.010,1.14,-8957,12.449,0.000,0,131,0,0,0,0,0,0,0,0,0,0,0
388743.77, 11:59:03.77,0,0.060,-1.786,219.586,0.040,-1.656,219.627,-9,-14,22,0.001,0.029,-1.008,-0.000,-0.002,0.000,1.006,1.558,0.022,1.587,0.623,51.7120221,-0.2102565,148.231,0.010,-0.010,1.13,-8957,12.448,0.000,0,131,0,0,0,0,0,0,0,0,0,0,0
388743.97, 11:59:03.97,0,0.007,-1.760,219.581,0.029,-1.622,219.157,-12,10,14,0.001,0.028,-1.008,0.001,-0.002,0.000,1.007,1.581,0.033,1.613,0.038,51.7120223,-0.2102566,148.204,-0.010,0.020,1.12,-8957,12.449,0.000,0,131,0,0,0,0,0,0,0,0,0,0,0
388744.18, 11:59:04.18,0,0.054,-1.717,219.579,-0.091,-1.404,219.627,-7,13,-72,-0.002,0.025,-1.007,-0.003,-0.005,-0.001,1.006,1.580,0.028,1.560,0.134,51.7120224,-0.2102566,148.181,0.010,-0.010,1.12,-8957,12.446,0.000,0,131,0,0,0,0,0,0,0,0,0,0,0
388744.38, 11:59:04.38,0,0.142,-1.703,219.580,0.160,-1.828,219.757,17,-2,-36,0.003,0.032,-1.003,0.000,0.001,0.002,1.002,1.582,0.024,1.559,-0.075,51.7120225,-0.2102566,148.157,-0.010,0.010,1.11,-8957,12.449,0.000,0,131,0,0,0,0,0,0,0,0,0,0,0
388744.59, 11:59:04.59,0,0.101,-1.691,219.578,-0.315,-1.667,219.017,-27,25,0,-0.005,0.029,-1.008,-0.006,0.000,-0.002,1.006,1.572,0.019,1.535,0.104,51.7120226,-0.2102566,148.129,-0.010,0.010,1.10,-8957,12.449,0.000,0,131,0,0,0,0,0,0,0,0,0,0,0
388744.78, 11:59:04.78,0,0.097,-1.726,219.574,0.258,-1.845,220.097,65,-1,17,0.004,0.032,-1.007,0.003,0.001,0.000,1.005,1.583,0.022,1.590,-0.520,51.7120227,-0.2102567,148.102,-0.020,0.030,1.10,-8957,12.452,0.000,0,131,0,0,0,0,0,0,0,0,0,0,0
388744.99, 11:59:04.99,0,0.146,-1.831,219.575,0.424,-1.925,219.527,6,40,-6,0.007,0.034,-1.007,0.004,-0.001,-0.001,1.006,1.590,0.023,1.586,0.080,51.7120228,-0.2102567,148.082,-0.010,0.030,1.09,-8957,12.450,0.000,0,131,0,0,0,0,0,0,0,0,0,0,0
388745.19, 11:59:05.19,0,0.181,-1.741,219.575,0.115,-1.645,218.747,20,-35,46,0.002,0.029,-1.006,-0.001,0.000,0.001,1.004,1.586,0.019,1.560,0.098,51.7120228,-0.2102567,148.064,-0.020,0.030,1.08,-8957,12.446,0.000,0,131,0,0,0,0,0,0,0,0,0,0,0
388745.39, 11:59:05.39,0,0.189,-1.749,219.578,0.361,-1.989,219.657,-19,-54,8,0.006,0.035,-1.004,0.003,0.004,0.003,1.003,1.577,0.012,1.526,-0.177,51.7120228,-0.2102568,148.043,-0.030,0.030,1.08,-8957,12.449,0.000,0,131,0,0,0,0,0,0,0,0,0,0,0
388745.61, 11:59:05.61,0,0.216,-1.739,219.588,0.195,-1.576,219.427,6,58,11,0.003,0.028,-1.008,-0.001,-0.003,-0.001,1.007,1.570,0.008,1.541,-0.406,51.7120229,-0.2102568,148.016,-0.010,0.030,1.07,-8957,12.449,0.000,0,131,0,0,0,0,0,0,0,0,0,0,0
388745.81, 11:59:05.81,0,0.229,-1.709,219.594,0.275,-1.731,220.337,-17,-50,-9,0.005,0.030,-1.006,-0.000,0.000,0.001,1.004,1.568,0.005,1.573,0.088,51.7120229,-0.2102568,147.996,-0.010,0.020,1.07,-8957,12.448,0.000,0,131,0,0,0,0,0,0,0,0,0,0,0
388746.01, 11:59:06.01,0,0.246,-1.709,219.635,0.378,-1.731,219.357,12,47,9,0.007,0.030,-1.007,0.002,-0.001,-0.001,1.006,1.578,0.008,1.602,-0.028,51.7120230,-0.2102567,147.965,0.000,0.020,1.06,-8957,12.446,0.000,0,131,0,0,0,0,0,0,0,0,0,0,0
388746.21, 11:59:06.21,0,0.276,-1.727,219.714,0.338,-1.604,219.287,4,-17,24,0.006,0.028,-1.007,0.001,-0.002,0.000,1.006,1.593,0.015,1.617,-0.276,51.7120230,-0.2102567,147.947,-0.010,0.030,1.06,-8957,12.449,0.000,0,131,0,0,0,0,0,0,0,0,0,0,0
388746.41, 11:59:06.41,0,0.236,-1.695,219.712,0.057,-1.667,218.717,-30,-40,16,0.001,0.029,-1.005,-0.003,0.001,0.002,1.004,1.605,0.020,1.608,-0.230,51.7120231,-0.2102567,147.904,-0.020,0.030,1.05,-8957,12.447,0.000,0,131,0,0,0,0,0,0,0,0,0,0,0
388746.62, 11:59:06.62,0,0.232,-1.728,219.663,0.327,-1.622,219.557,-58,-57,-6,0.006,0.028,-1.008,0.002,-0.002,-0.001,1.007,1.612,0.020,1.586,-0.591,51.7120231,-0.2102567,147.904,-0.020,0.030,1.05,-8957,12.451,0.000,0,131,0,0,0,0,0,0,0,0,0,0,0
388746.82, 11:59:06.82,0,0.213,-1.709,219.662,0.241,-1.828,218.847,43,43,67,0.004,0.032,-1.008,-0.000,0.002,-0.000,1.006,1.611,0.018,1.608,0.160,51.7120232,-0.2102567,147.869,0.020,-0.010,1.04,-8957,12.449,0.000,0,131,0,0,0,0,0,0,0,0,0,0,0
388747.02, 11:59:07.02,0,0.121,-1.729,219.664,0.046,-1.719,220.197,37,-34,-41,0.001,0.030,-1.009,-0.000,-0.001,-0.001,1.007,1.605,0.012,1.573,-0.152,51.7120232,-0.2102567,147.869,0.020,-0.010,1.04,-8957,12.448,0.000,0,131,0,0,0,0,0,0,0,0,0,0,0
388747.22, 11:59:07.22,0,0.095,-1.845,219.665,0.109,-1.897,217.967,14,36,11,0.002,0.033,-1.010,0.001,-0.000,-0.003,1.008,1.606,0.011,1.671,0.691,51.7120233,-0.2102566,147.832,-0.010,0.010,1.03,-8957,12.449,0.000,0,131,0,0,0,0,0,0,0,0,0,0,0
388747.43, 11:59:07.43,0,0.129,-1.800,219.632,0.172,-1.828,219.757,-36,19,-16,0.003,0.032,-1.006,0.001,0.002,0.002,1.004,1.611,0.011,1.564,-0.296,51.7120233,-0.2102566,147.832,-0.010,0.010,1.03,-8957,12.449,0.000,0,131,0,0,0,0,0,0,0,0,0,0,0
388747.63, 11:59:07.63,0,0.107,-1.775,219.632,-0.069,-1.880,219.157,-9,16,41,-0.001,0.033,-1.007,-0.002,0.002,0.003,1.005,1.599,0.004,1.536,-0.717,51.7120235,-0.2102566,147.808,0.000,0.000,1.02,-8957,12.444,0.000,0,131,0,0,0,0,0,0,0,0,0,0,0
388747.84, 11:59:07.84,0,0.072,-1.767,219.636,-0.006,-1.954,219.487,-47,-8,-11,-0.000,0.034,-1.008,-0.001,0.004,-0.001,1.007,1.601,0.003,1.593,-0.549,51.7120235,-0.2102566,147.808,0.000,0.000,1.02,-8957,12.443,0.000,0,131,0,0,0,0,0,0,0,0,0,0,0
388748.03, 11:59:08.03,0,0.031,-1.752,219.637,0.229,-1.352,219.597,25,-12,33,0.004,0.024,-1.007,0.004,-0.006,0.001,1.005,1.607,0.004,1.625,0.282,51.7120235,-0.2102567,147.800,0.000,-0.010,1.01,-8957,12.445,0.000,0,131,0,0,0,0,0,0,0,0,0,0,0
388748.25, 11:59:08.25,0,-0.057,-1.751,219.636,-0.149,-1.673,219.557,1,30,2,-0.003,0.029,-1.010,-0.001,-0.001,-0.002,1.008,1.608,0.004,1.621,0.172,51.7120235,-0.2102567,147.800,0.000,-0.010,1.01,-8957,12.448,0.000,0,131,0,0,0,0,0,0,0,0,0,0,0
388748.44, 11:59:08.44,0,-0.087,-1.811,219.540,-0.091,-1.748,219.827,57,-11,-2,-0.002,0.030,-1.010,0.000,-0.002,-0.002,1.008,1.619,0.008,1.661,0.243,51.7120238,-0.2102569,147.773,-0.010,0.020,1.01,-8957,12.447,0.000,0,131,0,0,0,0,0,0,0,0,0,0,0
388748.65, 11:59:08.65,0,-0.103,-1.844,219.495,-0.149,-1.656,220.767,-79,-12,-18,-0.003,0.029,-1.006,0.000,-0.003,0.002,1.004,1.628,0.011,1.660,0.393,51.7120238,-0.2102569,147.773,-0.010,0.020,1.01,-8957,12.449,0.000,0,131,0,0,0,0,0,0,0,0,0,0,0
388748.85, 11:59:08.85,0,-0.233,-1.741,219.496,-0.447,-1.771,218.407,12,32,-8,-0.008,0.031,-1.009,-0.001,0.004,-0.001,1.007,1.654,0.023,1.700,0.078,51.7120239,-0.2102571,147.759,-0.020,0.010,1.00,-8957,12.449,0.000,0,131,0,0,0,0,0,0,0,0,0,0,0
388749.05, 11:59:09.05,0,-0.316,-1.746,219.377,-0.367,-1.794,217.767,23,69,25,-0.006,0.031,-1.005,0.002,0.001,0.003,1.004,1.670,0.029,1.706,0.242,51.7120240,-0.2102572,147.754,-0.030,0.050,1.00,-8957,12.448,0.000,0,131,0,0,0,0,0,0,0,0,0,0,0
388749.26, 11:59:09.26,0,-0.372,-1.777,219.279,-0.372,-1.673,219.657,3,-41,9,-0.006,0.029,-1.009,0.001,-0.002,-0.001,1.007,1.709,0.046,1.803,0.160,51.7120240,-0.2102572,147.754,0.000,0.000,0.99,-8957,12.449,0.000,0,131,0,0,0,0,0,0,0,0,0,0,0
388749.46, 11:59:09.46,0,-0.353,-1.766,219.229,-0.464,-1.708,218.647,-36,5,33,-0.008,0.030,-1.008,-0.002,-0.001,0.000,1.006,1.738,0.057,1.702,-0.957,51.7120240,-0.2102572,147.758,-0.010,0.020,0.99,-8957,12.446,0.000,0,131,0,0,0,0,0,0,0,0,0,0,0
388749.67, 11:59:09.67,0,-0.315,-1.731,219.219,-0.155,-1.690,219.257,9,-45,33,-0.003,0.029,-1.005,0.003,-0.001,0.002,1.004,1.741,0.053,1.701,-0.387,51.7120241,-0.2102572,147.756,-0.040,0.060,0.99,-8957,12.449,0.000,0,131,0,0,0,0,0,0,0,0,0,0,0
388749.87, 11:59:09.87,0,-0.334,-1.761,219.218,-0.372,-1.880,219.217,-46,-22,-28,-0.006,0.033,-1.006,0.000,0.001,0.000,1.004,1.739,0.047,1.704,-0.096,51.7120242,-0.2102573,147.755,-0.010,0.010,0.98,-8957,12.446,0.000,0,131,0,0,0,0,0,0,0,0,0,0,0
388750.07, 11:59:10.07,0,-0.345,-1.774,219.170,-0.155,-1.736,218.717,31,-16,30,-0.003,0.030,-1.008,0.004,-0.001,-0.000,1.006,1.748,0.050,1.771,0.354,51.7120243,-0.2102573,147.755,-0.010,0.030,0.98,-8957,12.446,0.000,0,131,0,0,0,0,0,0,0,0,0,0,0
388750.28, 11:59:10.28,0,-0.295,-1.775,219.159,-0.315,-1.736,219.257,-41,3,26,-0.005,0.030,-1.006,-0.002,-0.000,0.003,1.004,1.757,0.050,1.688,-0.927,51.7120244,-0.2102574,147.756,-0.010,0.030,0.98,-8957,12.448,0.000,0,131,0,0,0,0,0,0,0,0,0,0,0
388750.48, 11:59:10.48,0,-0.219,-1.836,219.160,-0.057,-1.731,220.497,-63,-3,61,-0.001,0.030,-1.010,0.001,-0.003,-0.002,1.008,1.765,0.049,1.796,0.230,51.7120245,-0.2102575,147.760,-0.010,0.020,0.97,-8957,12.448,0.000,0,131,0,0,0,0,0,0,0,0,0,0,0
388750.69, 11:59:10.69,0,-0.183,-1.857,219.194,-0.132,-1.891,220.307,25,-22,-21,-0.002,0.033,-1.007,-0.001,0.000,0.000,1.005,1.781,0.052,1.759,-0.398,51.7120246,-0.2102576,147.764,-0.020,0.020,0.97,-8957,12.447,0.000,0,131,0,0,0,0,0,0,0,0,0,0,0
388750.88, 11:59:10.88,0,-0.151,-1.848,219.226,-0.286,-2.126,219.657,-9,-33,-19,-0.005,0.037,-1.008,-0.003,0.005,-0.002,1.007,1.790,0.052,1.731,-0.656,51.7120247,-0.2102576,147.776,0.020,0.000,0.97,-8957,12.445,0.000,0,131,0,0,0,0,0,0,0,0,0,0,0
388751.1, 11:59:11.10,0,-0.185,-1.810,219.234,-0.200,-1.753,219.757,16,16,-32,-0.004,0.031,-1.007,0.000,0.000,0.000,1.006,1.782,0.043,1.824,0.940,51.7120247,-0.2102576,147.784,0.010,-0.030,0.97,-8957,12.449,0.000,0,131,0,0,0,0,0,0,0,0,0,0,0
388751.29, 11:59:11.29,0,-0.251,-1.764,219.308,-0.269,-1.748,219.897,-23,6,21,-0.005,0.030,-1.009,0.001,0.002,0.000,1.007,1.786,0.042,1.775,0.450,51.7120248,-0.2102577,147.795,0.000,0.010,0.96,-8957,12.446,0.000,0,131,0,0,0,0,0,0,0,0,0,0,0
388751.5, 11:59:11.50,0,-0.350,-1.797,219.314,-0.516,-1.708,219.117,-28,29,2,-0.009,0.030,-1.008,-0.002,0.001,0.001,1.007,1.790,0.040,1.782,0.109,51.7120249,-0.2102577,147.796,0.000,-0.010,0.96,-8957,12.448,0.000,0,131,0,0,0,0,0,0,0,0,0,0,0
388751.69, 11:59:11.69,0,-0.452,-1.775,219.316,-0.631,-1.667,218.507,-4,7,32,-0.011,0.029,-1.011,-0.000,-0.001,-0.005,1.009,1.786,0.033,1.724,-0.377,51.7120250,-0.2102577,147.809,-0.010,0.030,0.96,-8957,12.447,0.000,0,131,0,0,0,0,0,0,0,0,0,0,0
388751.9, 11:59:11.90,0,-0.426,-1.760,219.246,-0.372,-1.817,218.037,-65,1,2,-0.006,0.032,-1.008,0.002,0.002,0.000,1.006,1.786,0.031,1.819,0.502,51.7120250,-0.2102578,147.822,-0.010,0.000,0.96,-8957,12.445,0.000,0,131,0,0,0,0,0,0,0,0,0,0,0
388752.1, 11:59:12.10,0,-0.378,-1.791,219.207,-0.321,-1.920,219.627,10,-71,-25,-0.006,0.034,-1.005,0.000,0.002,0.002,1.004,1.792,0.028,1.772,-0.164,51.7120251,-0.2102577,147.828,0.010,-0.020,0.95,-8957,12.443,0.000,0,131,0,0,0,0,0,0,0,0,0,0,0
388752.31, 11:59:12.31,0,-0.308,-1.844,219.202,-0.120,-1.920,221.307,-32,-2,28,-0.002,0.034,-1.006,0.002,0.000,0.000,1.005,1.794,0.026,1.783,-0.069,51.7120251,-0.2102577,147.839,0.010,0.000,0.95,-8957,12.446,0.000,0,131,0,0,0,0,0,0,0,0,0,0,0
388752.51, 11:59:12.51,0,-0.284,-1.840,219.225,-0.218,-1.811,220.037,31,-33,8,-0.004,0.032,-1.008,-0.000,-0.001,-0.002,1.007,1.792,0.023,1.765,-0.307,51.7120251,-0.2102577,147.840,0.000,0.000,0.95,-8957,12.448,0.000,0,131,0,0,0,0,0,0,0,0,0,0,0
388752.71, 11:59:12.71,0,-0.299,-1.910,219.230,-0.315,-2.046,218.747,-29,11,-41,-0.005,0.036,-1.009,-0.001,0.000,-0.000,1.007,1.818,0.036,1.868,0.046,51.7120251,-0.2102577,147.846,-0.010,0.010,0.95,-8957,12.449,0.000,0,131,0,0,0,0,0,0,0,0,0,0,0
388752.91, 11:59:12.91,0,-0.280,-1.890,219.227,-0.321,-2.017,219.017,-20,-17,27,-0.006,0.035,-1.008,-0.001,0.003,-0.000,1.007,1.823,0.033,1.808,0.044,51.7120252,-0.2102576,147.860,-0.010,0.030,0.94,-8957,12.442,0.000,0,131,0,0,0,0,0,0,0,0,0,0,0
388753.12, 11:59:13.12,0,-0.364,-1.849,219.225,-0.676,-1.880,218.887,-41,-31,-13,-0.012,0.033,-1.005,-0.003,0.001,0.002,1.004,1.832,0.035,1.824,-0.133,51.7120252,-0.2102576,147.868,-0.020,0.030,0.94,-8957,12.447,0.000,0,131,0,0,0,0,0,0,0,0,0,0,0
388753.32, 11:59:13.32,0,-0.462,-1.821,219.197,-0.470,-1.731,218.717,-15,11,43,-0.008,0.030,-1.009,0.002,-0.001,-0.002,1.007,1.848,0.040,1.856,-0.298,51.7120253,-0.2102576,147.873,-0.010,0.010,0.94,-8957,12.442,0.000,0,131,0,0,0,0,0,0,0,0,0,0,0
388753.52, 11:59:13.52,0,-0.392,-1.804,219.190,-0.464,-1.656,218.887,-8,38,19,-0.008,0.029,-1.004,-0.002,-0.003,0.005,1.003,1.871,0.046,1.904,-0.032,51.7120253,-0.2102576,147.882,-0.030,0.050,0.94,-8957,12.447,0.000,0,131,0,0,0,0,0,0,0,0,0,0,0
388753.73, 11:59:13.73,0,-0.320,-1.774,219.130,-0.315,-1.702,220.137,-77,-78,25,-0.005,0.030,-1.004,0.000,0.001,0.003,1.003,1.877,0.043,1.857,-0.032,51.7120254,-0.2102576,147.886,-0.010,0.030,0.94,-8957,12.443,0.000,0,131,0,0,0,0,0,0,0,0,0,0,0
388753.93, 11:59:13.93,0,-0.298,-1.790,219.089,-0.189,-1.455,218.847,-13,-7,37,-0.003,0.025,-1.007,0.000,-0.005,-0.001,1.005,1.873,0.036,1.806,-0.660,51.7120254,-0.2102575,147.900,-0.020,0.030,0.93,-8957,12.449,0.000,0,131,0,0,0,0,0,0,0,0,0,0,0
388754.13, 11:59:14.13,0,-0.232,-1.701,219.033,-0.017,-1.581,218.277,-18,-20,55,-0.000,0.028,-1.007,0.003,-0.001,-0.000,1.005,1.879,0.036,1.870,-0.347,51.7120254,-0.2102575,147.904,0.000,0.020,0.93,-8957,12.446,0.000,0,131,0,0,0,0,0,0,0,0,0,0,0
388754.33, 11:59:14.33,0,-0.127,-1.678,218.961,0.012,-1.794,219.317,-4,-22,-12,0.000,0.031,-1.008,0.001,0.003,-0.000,1.006,1.893,0.040,1.901,-0.224,51.7120254,-0.2102574,147.910,0.000,0.000,0.93,-8957,12.447,0.000,0,131,0,0,0,0,0,0,0,0,0,0,0
388754.54, 11:59:14.54,0,-0.078,-1.667,218.964,-0.051,-1.484,219.967,-12,-25,7,-0.001,0.026,-1.008,-0.000,-0.003,-0.000,1.007,1.897,0.038,1.886,-0.054,51.7120254,-0.2102574,147.911,-0.020,0.040,0.93,-8957,12.446,0.000,0,131,0,0,0,0,0,0,0,0,0,0,0
388754.75, 11:59:14.75,0,-0.058,-1.588,219.014,0.206,-1.593,218.817,7,-19,21,0.004,0.028,-1.004,0.004,0.001,0.002,1.003,1.899,0.032,1.842,-0.543,51.7120255,-0.2102573,147.921,-0.020,0.040,0.93,-8957,12.448,0.000,0,3,0,0,0,0,0,0,0,0,0,0,0
388754.96, 11:59:14.96,0,0.029,-1.593,219.065,0.040,-1.530,218.777,24,-27,-16,0.001,0.027,-1.007,0.000,0.000,-0.000,1.005,1.891,0.026,1.897,0.498,51.7120255,-0.2102572,147.920,-0.010,0.020,0.92,-8957,12.446,0.000,0,3,0,0,0,0,0,0,0,0,0,0,0
388755.14, 11:59:15.14,0,0.081,-1.587,219.072,0.275,-1.673,218.777,-4,21,-4,0.005,0.029,-1.002,0.003,0.002,0.003,1.001,1.902,0.027,1.882,-0.443,51.7120256,-0.2102572,147.926,0.000,0.010,0.92,-8957,12.443,0.000,0,3,0,0,0,0,0,0,0,0,0,0,0
388755.35, 11:59:15.35,0,0.139,-1.548,219.065,0.138,-1.501,218.917,-16,-56,0,0.002,0.026,-1.006,-0.001,0.000,0.001,1.005,1.920,0.035,2.050,1.257,51.7120256,-0.2102571,147.930,0.020,-0.030,0.92,-8957,12.446,0.000,0,3,0,0,0,0,0,0,0,0,0,0,0
388755.55, 11:59:15.55,0,0.146,-1.542,219.065,0.304,-1.513,218.887,19,10,22,0.005,0.026,-1.004,0.003,-0.000,0.002,1.003,1.940,0.041,1.908,-0.438,51.7120258,-0.2102571,147.935,-0.010,0.010,0.92,-8957,12.447,0.000,0,3,0,0,0,0,0,0,0,0,0,0,0
388755.76, 11:59:15.76,0,0.224,-1.553,219.097,0.063,-1.765,218.447,17,-4,-23,0.001,0.031,-1.006,-0.004,0.004,-0.000,1.005,1.959,0.046,1.996,0.124,51.7120258,-0.2102570,147.941,0.010,-0.010,0.92,-8957,12.448,0.000,0,3,0,0,0,0,0,0,0,0,0,0,0
388755.97, 11:59:15.97,0,0.215,-1.568,219.100,0.292,-1.518,219.527,7,13,-21,0.005,0.026,-1.008,0.001,-0.001,-0.000,1.006,1.969,0.048,1.993,0.440,51.7120259,-0.2102571,147.946,-0.020,0.040,0.92,-8957,12.446,0.000,0,3,0,0,0,0,0,0,0,0,0,0,0
388756.17, 11:59:16.17,0,0.195,-1.535,219.100,0.046,-1.496,218.887,-29,6,-43,0.001,0.026,-1.007,-0.001,0.000,0.001,1.005,1.978,0.048,1.996,0.630,51.7120259,-0.2102570,147.945,0.000,0.000,0.91,-8957,12.449,0.000,0,3,0,0,0,0,0,0,0,0,0,0,0
388756.37, 11:59:16.37,0,0.174,-1.536,219.099,0.178,-1.358,218.887,11,12,-4,0.003,0.024,-1.006,0.001,-0.003,0.000,1.004,1.993,0.050,1.995,-0.082,51.7120260,-0.2102570,147.954,0.010,-0.010,0.91,-8957,12.448,0.000,0,3,0,0,0,0,0,0,0,0,0,0,0
388756.58, 11:59:16.58,0,0.150,-1.506,219.197,0.304,-1.450,219.827,-27,-9,-9,0.005,0.025,-1.011,0.003,-0.001,-0.005,1.009,2.001,0.049,2.014,0.054,51.7120261,-0.2102570,147.950,-0.010,0.020,0.91,-8957,12.447,0.000,0,7,0,0,0,0,0,0,0,0,0,0,0
388756.78, 11:59:16.78,0,0.170,-1.485,219.228,-0.057,-1.593,219.117,20,-56,-33,-0.001,0.028,-1.005,-0.004,0.003,0.001,1.004,2.022,0.055,1.994,-0.635,51.7120262,-0.2102570,147.950,-0.010,0.000,0.91,-8957,12.447,0.000,0,7,0,0,0,0,0,0,0,0,0,0,0
388756.98, 11:59:16.98,0,0.212,-1.455,219.231,0.109,-1.169,217.327,4,-25,-21,0.002,0.020,-1.007,-0.003,-0.004,-0.000,1.005,2.015,0.047,1.953,-0.262,51.7120263,-0.2102570,147.956,0.000,0.010,0.91,-8957,12.444,0.000,0,7,0,0,0,0,0,0,0,0,0,0,0
388757.18, 11:59:17.18,0,0.199,-1.504,219.168,0.269,-1.295,218.337,-32,-11,-82,0.005,0.023,-1.003,0.001,-0.004,0.002,1.002,2.015,0.041,2.010,0.001,51.7120264,-0.2102570,147.948,0.000,0.010,0.91,-8957,12.446,0.000,0,7,0,0,0,0,0,0,0,0,0,0,0
388757.39, 11:59:17.39,0,0.154,-1.536,219.049,0.126,-1.541,219.357,8,29,26,0.002,0.027,-1.005,0.000,-0.001,-0.001,1.004,2.043,0.050,2.002,-1.276,51.7120265,-0.2102570,147.941,-0.020,0.020,0.90,-8957,12.445,0.000,0,7,0,0,0,0,0,0,0,0,0,0,0
388757.59, 11:59:17.59,0,0.177,-1.515,219.053,0.407,-1.496,219.357,-22,58,28,0.007,0.026,-1.000,0.004,-0.001,0.004,1.000,2.049,0.048,2.022,-0.594,51.7120266,-0.2102570,147.932,-0.020,0.050,0.90,-8957,12.445,0.000,0,7,0,0,0,0,0,0,0,0,0,0,0
388757.8, 11:59:17.80,0,0.205,-1.550,219.061,0.286,-1.645,218.607,31,4,26,0.005,0.029,-1.007,-0.001,0.001,-0.003,1.005,2.074,0.056,2.053,-0.959,51.7120266,-0.2102570,147.922,-0.010,0.040,0.90,-8957,12.447,0.000,0,7,0,0,0,0,0,0,0,0,0,0,0
388757.99, 11:59:17.99,0,0.190,-1.568,219.066,0.269,-1.501,218.307,0,-21,8,0.005,0.026,-1.004,0.002,-0.002,0.003,1.002,2.083,0.058,2.046,-0.423,51.7120267,-0.2102570,147.917,-0.020,0.010,0.90,-8957,12.448,0.000,0,7,0,0,0,0,0,0,0,0,0,0,0
388758.2, 11:59:18.20,0,0.207,-1.561,219.070,0.172,-1.593,219.487,11,-69,17,0.003,0.028,-1.006,-0.002,0.000,-0.000,1.005,2.089,0.056,2.065,-0.330,51.7120268,-0.2102570,147.906,-0.020,0.030,0.90,-8957,12.446,0.000,0,7,0,0,0,0,0,0,0,0,0,0,0
388758.39, 11:59:18.39,0,0.132,-1.622,219.070,-0.155,-1.667,219.967,-3,14,-35,-0.003,0.029,-1.008,-0.003,-0.001,-0.002,1.007,2.095,0.053,2.094,0.134,51.7120269,-0.2102571,147.896,-0.010,0.020,0.90,-8957,12.449,0.000,0,7,0,0,0,0,0,0,0,0,0,0,0
388758.6, 11:59:18.60,0,0.057,-1.592,219.093,0.115,-1.467,219.757,5,5,-51,0.002,0.026,-1.006,0.002,-0.001,0.002,1.004,2.104,0.053,2.071,-0.319,51.7120270,-0.2102571,147.887,-0.010,0.030,0.90,-8957,12.446,0.000,0,7,0,0,0,0,0,0,0,0,0,0,0
388758.82, 11:59:18.82,0,-0.023,-1.625,219.108,-0.149,-1.581,218.777,46,-26,17,-0.003,0.028,-1.005,-0.001,-0.001,0.003,1.004,2.096,0.044,2.064,0.197,51.7120271,-0.2102572,147.885,-0.020,0.020,0.89,-8957,12.448,0.000,0,7,0,0,0,0,0,0,0,0,0,0,0
388759.0, 11:59:19.00,0,-0.055,-1.639,219.126,-0.172,-1.530,218.887,47,65,-15,-0.003,0.027,-1.005,-0.002,-0.002,0.000,1.004,2.093,0.037,2.094,0.289,51.7120272,-0.2102572,147.885,-0.010,0.030,0.89,-8957,12.442,0.000,0,7,0,0,0,0,0,0,0,0,0,0,0
388759.21, 11:59:19.21,0,-0.006,-1.622,219.204,-0.304,-1.708,218.277,-28,3,64,-0.005,0.030,-1.005,-0.005,0.002,0.000,1.004,2.107,0.041,2.165,0.566,51.7120274,-0.2102573,147.884,-0.010,-0.010,0.89,-8957,12.443,0.000,0,7,0,0,0,0,0,0,0,0,0,0,0
388759.43, 11:59:19.43,0,-0.006,-1.586,219.205,0.092,-1.496,218.307,-11,0,7,0.002,0.026,-1.004,0.002,0.000,0.001,1.003,2.121,0.045,2.133,0.407,51.7120274,-0.2102573,147.884,-0.010,-0.010,0.89,-8957,12.444,0.000,0,7,0,0,0,0,0,0,0,0,0,0,0
388759.62, 11:59:19.62,0,-0.023,-1.662,219.178,-0.281,-1.943,218.337,32,-16,-41,-0.005,0.034,-1.007,-0.004,0.004,-0.001,1.005,2.128,0.045,2.141,0.492,51.7120275,-0.2102573,147.875,0.010,-0.010,0.89,-8957,12.441,0.000,0,7,0,0,0,0,0,0,0,0,0,0,0
